,name,latitude,longitude,city,region,cuisine,url,stars,min_price_EUR,max_price_EUR
0,Kilian Stuba,47.34858,10.17114,Kleinwalsertal,Austria,Creative,https://guide.michelin.com/at/en/vorarlberg/kleinwalsertal/restaurant/kilian-stuba,1,90.0,120.0
1,Pfefferschiff,47.83787,13.07917,Hallwang,Austria,Classic cuisine,https://guide.michelin.com/at/en/salzburg-region/hallwang/restaurant/pfefferschiff,1,59.0,120.0
2,Esszimmer,47.80685,13.034089999999999,Salzburg,Austria,Creative,https://guide.michelin.com/at/en/salzburg-region/salzburg/restaurant/esszimmer,1,45.0,128.0
3,Carpe Diem,47.80001,13.04006,Salzburg,Austria,Market cuisine,https://guide.michelin.com/at/en/salzburg-region/salzburg/restaurant/carpe-diem,1,61.0,118.0
4,Edvard,48.216503,16.36852,Wien,Austria,Modern cuisine,https://guide.michelin.com/at/en/vienna/wien/restaurant/edvard,1,33.0,158.0
5,Das Loft,48.212720000000004,16.37931,Wien,Austria,Modern cuisine,https://guide.michelin.com/at/en/vienna/wien/restaurant/das-loft,1,59.0,99.0
6,Pramerl & the Wolf,48.20945,16.37174,Wien,Austria,Creative,https://guide.michelin.com/at/en/vienna/wien/restaurant/pramerl-the-wolf,1,65.0,95.0
7,Walter Bauer,48.20923,16.376720000000002,Wien,Austria,Classic cuisine,https://guide.michelin.com/at/en/vienna/wien/restaurant/walter-bauer,1,52.0,78.0
8,SHIKI,48.204066999999995,16.37098,Wien,Austria,Japanese,https://guide.michelin.com/at/en/vienna/wien/restaurant/shiki,1,92.0,125.0
9,Tian,48.20513,16.37456,Wien,Austria,Vegetarian,https://guide.michelin.com/at/en/vienna/wien/restaurant/tian,1,89.0,127.0
10,aend,48.18957,16.34115,Wien,Austria,Modern cuisine,https://guide.michelin.com/at/en/vienna/wien/restaurant/aend,1,39.0,120.0
11,Le Ciel by Toni Mörwald,48.202090000000005,16.371560000000002,Wien,Austria,Classic cuisine,https://guide.michelin.com/at/en/vienna/wien/restaurant/le-ciel-by-toni-morwald,1,53.0,145.0
12,Chez TJ,37.39468,-122.08044,South San Francisco,California,Contemporary,https://guide.michelin.com/us/en/california/south-san-francisco/restaurant/chez-tj,1,67.97258620283382,135.94517240566765
13,Protégé,37.427853000000006,-122.14362,South San Francisco,California,Contemporary,https://guide.michelin.com/us/en/california/south-san-francisco/restaurant/protege,1,45.315057468555885,67.97258620283382
14,Madera,37.42014,-122.21151,San Francisco,California,Contemporary,https://guide.michelin.com/us/en/california/san-francisco/restaurant/madera,1,45.315057468555885,67.97258620283382
15,The Village Pub,37.42897,-122.25178000000001,San Francisco,California,Contemporary,https://guide.michelin.com/us/en/california/san-francisco/restaurant/the-village-pub,1,45.315057468555885,67.97258620283382
16,Plumed Horse,37.256479999999996,-122.03537,South San Francisco,California,Contemporary,https://guide.michelin.com/us/en/california/south-san-francisco/restaurant/plumed-horse,1,67.97258620283382,135.94517240566765
17,Wakuriya,37.52114,-122.3366,San Francisco,California,Japanese,https://guide.michelin.com/us/en/california/san-francisco/restaurant/wakuriya,1,67.97258620283382,135.94517240566765
18,Sushi Yoshizumi,37.565075,-122.3211,San Francisco,California,Japanese,https://guide.michelin.com/us/en/california/san-francisco/restaurant/sushi-yoshizumi,1,67.97258620283382,135.94517240566765
19,Rasa,37.577521999999995,-122.34598500000001,San Francisco,California,Indian,https://guide.michelin.com/us/en/california/san-francisco/restaurant/rasa,1,22.657528734277943,45.315057468555885
20,Maum,37.726690000000005,-122.41421499999998,South San Francisco,California,Korean,https://guide.michelin.com/us/en/california/south-san-francisco/restaurant/maum,1,67.97258620283382,135.94517240566765
21,Al's Place,37.748924,-122.42013,San Francisco,California,Californian,https://guide.michelin.com/us/en/california/san-francisco/restaurant/al-s-place,1,22.657528734277943,45.315057468555885
22,Omakase,37.77077,-122.40298,San Francisco,California,Japanese,https://guide.michelin.com/us/en/california/san-francisco/restaurant/omakase,1,67.97258620283382,135.94517240566765
23,Luce,37.781940000000006,-122.40498000000001,San Francisco,California,Contemporary,https://guide.michelin.com/us/en/california/san-francisco/restaurant/luce,1,45.315057468555885,67.97258620283382
24,Birdsong,37.779495000000004,-122.41048,San Francisco,California,American,https://guide.michelin.com/us/en/california/san-francisco/restaurant/birdsong,1,67.97258620283382,135.94517240566765
25,In Situ,37.785633000000004,-122.40113000000001,San Francisco,California,International,https://guide.michelin.com/us/en/california/san-francisco/restaurant/in-situ,1,67.97258620283382,135.94517240566765
26,Mourad,37.78695,-122.39986999999999,San Francisco,California,Moroccan,https://guide.michelin.com/us/en/california/san-francisco/restaurant/mourad,1,45.315057468555885,67.97258620283382
27,Hashiri,37.783062,-122.40754,San Francisco,California,Japanese,https://guide.michelin.com/us/en/california/san-francisco/restaurant/hashiri,1,67.97258620283382,135.94517240566765
28,Angler,37.793167,-122.39213000000001,San Francisco,California,Contemporary,https://guide.michelin.com/us/en/california/san-francisco/restaurant/angler,1,41.776862812905804,87.03513086022042
29,Rich Table,37.774914,-122.42271000000001,San Francisco,California,Contemporary,https://guide.michelin.com/us/en/california/san-francisco/restaurant/rich-table,1,45.315057468555885,67.97258620283382
30,Kin Khao,37.785267,-122.40951000000001,San Francisco,California,Thai,https://guide.michelin.com/us/en/california/san-francisco/restaurant/kin-khao,1,22.657528734277943,45.315057468555885
31,Michael Mina,37.793490000000006,-122.399574,San Francisco,California,Contemporary,https://guide.michelin.com/us/en/california/san-francisco/restaurant/michael-mina,1,67.97258620283382,135.94517240566765
32,Sons & Daughters,37.79037,-122.40916999999999,San Francisco,California,Contemporary,https://guide.michelin.com/us/en/california/san-francisco/restaurant/sons-daughters,1,67.97258620283382,135.94517240566765
33,Mister Jiu's,37.79371,-122.406654,San Francisco,California,Chinese,https://guide.michelin.com/us/en/california/san-francisco/restaurant/mister-jius,1,45.315057468555885,67.97258620283382
34,Nico,37.795803,-122.40333000000001,San Francisco,California,Contemporary,https://guide.michelin.com/us/en/california/san-francisco/restaurant/nico,1,45.315057468555885,67.97258620283382
35,jū-ni,37.776720000000005,-122.43886,San Francisco,California,Japanese,https://guide.michelin.com/us/en/california/san-francisco/restaurant/ju-ni,1,67.97258620283382,135.94517240566765
36,Keiko à Nob Hill,37.793106,-122.41445,San Francisco,California,Fusion,https://guide.michelin.com/us/en/california/san-francisco/restaurant/keiko-a-nob-hill,1,67.97258620283382,135.94517240566765
37,The Progress,37.78371,-122.43281999999999,San Francisco,California,Californian,https://guide.michelin.com/us/en/california/san-francisco/restaurant/the-progress,1,45.315057468555885,67.97258620283382
38,State Bird Provisions,37.783737,-122.43283000000001,San Francisco,California,American,https://guide.michelin.com/us/en/california/san-francisco/restaurant/state-bird-provisions,1,22.657528734277943,45.315057468555885
39,Octavia,37.787857,-122.42708999999999,San Francisco,California,Californian,https://guide.michelin.com/us/en/california/san-francisco/restaurant/octavia,1,45.315057468555885,67.97258620283382
40,SPQR,37.78732,-122.43375,San Francisco,California,Italian,https://guide.michelin.com/us/en/california/san-francisco/restaurant/spqr,1,45.315057468555885,67.97258620283382
41,Lord Stanley,37.79592,-122.42208000000001,San Francisco,California,Californian,https://guide.michelin.com/us/en/california/san-francisco/restaurant/lord-stanley,1,45.315057468555885,67.97258620283382
42,Kinjo,37.79699,-122.422005,San Francisco,California,Japanese,https://guide.michelin.com/us/en/california/san-francisco/restaurant/kinjo,1,67.97258620283382,135.94517240566765
43,Sorrel,37.788334000000006,-122.44613999999999,San Francisco,California,Californian,https://guide.michelin.com/us/en/california/san-francisco/restaurant/sorrel,1,52.22107851613225,110.24449908961253
44,Gary Danko,37.80599,-122.42066000000001,San Francisco,California,Contemporary,https://guide.michelin.com/us/en/california/san-francisco/restaurant/gary-danko,1,67.97258620283382,135.94517240566765
45,Bar Crenn,37.798435,-122.43581,San Francisco,California,French,https://guide.michelin.com/us/en/california/san-francisco/restaurant/bar-crenn,1,45.315057468555885,67.97258620283382
46,Spruce,37.78772,-122.45263999999999,San Francisco,California,Californian,https://guide.michelin.com/us/en/california/san-francisco/restaurant/spruce,1,45.315057468555885,67.97258620283382
47,Wako,37.783035,-122.461525,San Francisco,California,Japanese,https://guide.michelin.com/us/en/california/san-francisco/restaurant/wako,1,67.97258620283382,135.94517240566765
48,Madcap,37.974712,-122.56168000000001,San Francisco,California,Contemporary,https://guide.michelin.com/us/en/california/san-francisco/restaurant/madcap,1,67.97258620283382,135.94517240566765
49,Aubergine,36.55406,-121.924355,Monterey,California,Contemporary,https://guide.michelin.com/us/en/california/monterey/restaurant/aubergine,1,67.97258620283382,135.94517240566765
50,Kenzo,38.299240000000005,-122.28928,San Francisco,California,Japanese,https://guide.michelin.com/us/en/california/san-francisco/restaurant/kenzo,1,67.97258620283382,135.94517240566765
51,La Toque,38.303509999999996,-122.28348999999999,San Francisco,California,Contemporary,https://guide.michelin.com/us/en/california/san-francisco/restaurant/la-toque,1,67.97258620283382,135.94517240566765
52,Bouchon,38.40258,-122.3619,San Francisco,California,French,https://guide.michelin.com/us/en/california/san-francisco/restaurant/bouchon,1,45.315057468555885,67.97258620283382
53,Auberge du Soleil,38.49199,-122.40534,San Francisco,California,Californian,https://guide.michelin.com/us/en/california/san-francisco/restaurant/auberge-du-soleil,1,67.97258620283382,135.94517240566765
54,Farmhouse Inn & Restaurant,38.490390000000005,-122.8835,San Francisco,California,Californian,https://guide.michelin.com/us/en/california/san-francisco/restaurant/farmhouse-inn-restaurant,1,67.97258620283382,135.94517240566765
55,The Kitchen,38.58894,-121.41423999999999,Sacramento,California,Contemporary,https://guide.michelin.com/us/en/california/us-sacramento/restaurant/the-kitchen559371,1,48.34510337598602,185.51028039622543
56,Madrona Manor,38.604279999999996,-122.88646999999999,San Francisco,California,Contemporary,https://guide.michelin.com/us/en/california/san-francisco/restaurant/madrona-manor,1,67.97258620283382,135.94517240566765
57,Harbor House,39.135876,-123.719444,San Francisco,California,Californian,https://guide.michelin.com/us/en/california/san-francisco/restaurant/harbor-house,1,67.97258620283382,135.94517240566765
58,Shin Sushi,34.15784,-118.49415,Los Angeles,California,Japanese,https://guide.michelin.com/us/en/california/us-los-angeles/restaurant/shin-sushi,1,45.315057468555885,67.97258620283382
59,Rustic Canyon,34.024952,-118.49118,Los Angeles,California,Californian,https://guide.michelin.com/us/en/california/us-los-angeles/restaurant/rustic-canyon,1,45.315057468555885,67.97258620283382
60,Dialogue,34.01679,-118.49748000000001,Los Angeles,California,Contemporary,https://guide.michelin.com/us/en/california/us-los-angeles/restaurant/dialogue,1,67.97258620283382,135.94517240566765
61,Kato,34.041683,-118.46091499999999,Los Angeles,California,Asian,https://guide.michelin.com/us/en/california/us-los-angeles/restaurant/kato,1,45.315057468555885,67.97258620283382
62,CUT,34.067036,-118.40102399999999,Los Angeles,California,Steakhouse,https://guide.michelin.com/us/en/california/us-los-angeles/restaurant/cut559418,1,67.97258620283382,135.94517240566765
63,Nozawa Bar,34.0683,-118.39849,Los Angeles,California,Japanese,https://guide.michelin.com/us/en/california/us-los-angeles/restaurant/nozawa-bar,1,67.97258620283382,135.94517240566765
64,Shunji,34.028496000000004,-118.45195,Los Angeles,California,Japanese,https://guide.michelin.com/us/en/california/us-los-angeles/restaurant/shunji,1,67.97258620283382,135.94517240566765
65,Maude,34.064346,-118.39903999999999,Los Angeles,California,Contemporary,https://guide.michelin.com/us/en/california/us-los-angeles/restaurant/maude,1,67.97258620283382,135.94517240566765
66,Mori Sushi,34.033398,-118.44228999999999,Los Angeles,California,Japanese,https://guide.michelin.com/us/en/california/us-los-angeles/restaurant/mori-sushi,1,67.97258620283382,135.94517240566765
67,Trois Mec,34.084255,-118.33851000000001,Los Angeles,California,Contemporary,https://guide.michelin.com/us/en/california/us-los-angeles/restaurant/trois-mec,1,67.97258620283382,135.94517240566765
68,Osteria Mozza,34.083420000000004,-118.338974,Los Angeles,California,Italian,https://guide.michelin.com/us/en/california/us-los-angeles/restaurant/osteria-mozza,1,45.315057468555885,67.97258620283382
69,Kali,34.083443,-118.32455,Los Angeles,California,Californian,https://guide.michelin.com/us/en/california/us-los-angeles/restaurant/kali,1,45.315057468555885,67.97258620283382
70,Le Comptoir,34.06354,-118.30057,Los Angeles,California,Californian,https://guide.michelin.com/us/en/california/us-los-angeles/restaurant/le-comptoir,1,67.97258620283382,135.94517240566765
71,Q Sushi,34.046883,-118.255844,Los Angeles,California,Japanese,https://guide.michelin.com/us/en/california/us-los-angeles/restaurant/q-sushi,1,67.97258620283382,135.94517240566765
72,Shibumi,34.044154999999996,-118.256134,Los Angeles,California,Japanese,https://guide.michelin.com/us/en/california/us-los-angeles/restaurant/shibumi559644,1,67.97258620283382,135.94517240566765
73,Hayato,34.03311,-118.24265,Los Angeles,California,Japanese,https://guide.michelin.com/us/en/california/us-los-angeles/restaurant/hayato,1,67.97258620283382,135.94517240566765
74,Bistro Na's,34.104411999999996,-118.07158999999999,Los Angeles,California,Chinese,https://guide.michelin.com/us/en/california/us-los-angeles/restaurant/bistro-na-s,1,22.657528734277943,45.315057468555885
75,Orsa & Winston,33.92145,-118.275406,Los Angeles,California,Fusion,https://guide.michelin.com/us/en/california/us-los-angeles/restaurant/orsa-winston,1,67.97258620283382,135.94517240566765
76,Taco María,33.69475,-117.92496499999999,Costa Mesa,California,Mexican,https://guide.michelin.com/us/en/california/us-costa-mesa/restaurant/taco-maria,1,45.315057468555885,67.97258620283382
77,Hana re,33.67759,-117.88656599999999,Costa Mesa,California,Japanese,https://guide.michelin.com/us/en/california/us-costa-mesa/restaurant/hana-re,1,67.97258620283382,135.94517240566765
78,Addison,32.939903,-117.20013,San Diego,California,Contemporary,https://guide.michelin.com/us/en/california/us-san-diego/restaurant/addison,1,67.97258620283382,135.94517240566765
79,Parachute,41.944829999999996,-87.70638000000001,Chicago,Chicago,Fusion,https://guide.michelin.com/us/en/illinois/chicago/restaurant/parachute,1,45.315057468555885,67.97258620283382
80,Goosefoot,41.96856,-87.69596,Chicago,Chicago,Contemporary,https://guide.michelin.com/us/en/illinois/chicago/restaurant/goosefoot,1,67.97258620283382,135.94517240566765
81,Elizabeth,41.969555,-87.68873599999999,Chicago,Chicago,Contemporary,https://guide.michelin.com/us/en/illinois/chicago/restaurant/elizabeth,1,67.97258620283382,135.94517240566765
82,EL Ideas,41.863,-87.68686,Chicago,Chicago,Contemporary,https://guide.michelin.com/us/en/illinois/chicago/restaurant/el-ideas,1,67.97258620283382,135.94517240566765
83,Band of Bohemia,41.967308,-87.67477,Chicago,Chicago,Gastropub,https://guide.michelin.com/us/en/illinois/chicago/restaurant/band-of-bohemia,1,45.315057468555885,67.97258620283382
84,Schwa,41.908879999999996,-87.66792,Chicago,Chicago,Contemporary,https://guide.michelin.com/us/en/illinois/chicago/restaurant/schwa,1,72.50409194968941,135.94517240566765
85,Temporis,41.898907,-87.66725,Chicago,Chicago,Contemporary,https://guide.michelin.com/us/en/illinois/chicago/restaurant/temporis,1,67.97258620283382,135.94517240566765
86,Entente,41.93721,-87.6652,Chicago,Chicago,Contemporary,https://guide.michelin.com/us/en/illinois/chicago/restaurant/entente,1,54.37806896226706,117.81914941824529
87,Elske,41.884426,-87.66071,Chicago,Chicago,Contemporary,https://guide.michelin.com/us/en/illinois/chicago/restaurant/elske,1,67.97258620283382,135.94517240566765
88,Dusek's (Board & Beer),41.857853000000006,-87.65756999999999,Chicago,Chicago,Gastropub,https://guide.michelin.com/us/en/illinois/chicago/restaurant/dusek-s-board-beer,1,27.18903448113353,51.659165514153706
89,Roister,41.886658000000004,-87.65187,Chicago,Chicago,Contemporary,https://guide.michelin.com/us/en/illinois/chicago/restaurant/roister,1,27.18903448113353,120.53805286635865
90,Boka,41.91363,-87.64806,Chicago,Chicago,Contemporary,https://guide.michelin.com/us/en/illinois/chicago/restaurant/boka,1,45.315057468555885,67.97258620283382
91,Blackbird,41.88423,-87.64356,Chicago,Chicago,Contemporary,https://guide.michelin.com/us/en/illinois/chicago/restaurant/blackbird,1,33.65358393261857,64.98623104229792
92,Sepia,41.88394,-87.64246999999999,Chicago,Chicago,American,https://guide.michelin.com/us/en/illinois/chicago/restaurant/sepia,1,45.315057468555885,67.97258620283382
93,North Pond,41.9296,-87.63762,Chicago,Chicago,Contemporary,https://guide.michelin.com/us/en/illinois/chicago/restaurant/north-pond,1,45.315057468555885,67.97258620283382
94,Everest,41.87597,-87.63212,Chicago,Chicago,French,https://guide.michelin.com/us/en/illinois/chicago/restaurant/everest,1,67.97258620283382,135.94517240566765
95,Topolobampo,41.89047,-87.63085,Chicago,Chicago,Mexican,https://guide.michelin.com/us/en/illinois/chicago/restaurant/topolobampo,1,67.97258620283382,135.94517240566765
96,Spiaggia,41.90062,-87.62456999999999,Chicago,Chicago,Italian,https://guide.michelin.com/us/en/illinois/chicago/restaurant/spiaggia,1,48.03396091666924,140.47667815252325
97,Monte,45.08279,13.631167999999999,Rovinj,Croatia,Creative,https://guide.michelin.com/hr/en/istria/rovinj/restaurant/monte,1,67.27534709706205,121.09562477471168
98,Draga di Lovrana,45.275867,14.251401000000001,Lovran,Croatia,Modern cuisine,https://guide.michelin.com/hr/en/primorje-gorski-kotar/lovran/restaurant/draga-di-lovrana,1,36.3286874324135,74.00288180676824
99,Noel,45.811054,15.988204999999999,Zagreb,Croatia,Modern cuisine,https://guide.michelin.com/hr/en/zagreb-region/zagreb/restaurant/noel,1,57.58769711508511,92.83997899394562
100,Pelegrini,43.73603,15.888902999999999,Šibenik,Croatia,Modern cuisine,https://guide.michelin.com/hr/en/sibenik-knin/sibenik/restaurant/pelegrini,1,60.54781238735584,90.82171858103376
101,360º,42.641563,18.111523000000002,Dubrovnik,Croatia,Modern cuisine,https://guide.michelin.com/hr/en/dubrovnik-neretva/dubrovnik/restaurant/360%C2%BA,1,64.58433321317956,110.33156923918176
102,Field,50.0919,14.42193,Praha,Czech Republic,Modern cuisine,https://guide.michelin.com/cz/en/prague/praha/restaurant/field,1,45.47314632345103,137.20345873455054
103,La Degustation Bohême Bourgeoise,50.09115,14.42511,Praha,Czech Republic,Modern cuisine,https://guide.michelin.com/cz/en/prague/praha/restaurant/la-degustation-boheme-bourgeoise,1,135.24340932405696,135.24340932405696
104,Gastromé,56.157880000000006,10.20937,Aarhus,Denmark,Modern cuisine,https://guide.michelin.com/dk/en/central-denmark/aarhus/restaurant/gastrome,1,80.29085630332065,147.19990322275453
105,Domestic,56.158930000000005,10.212132,Aarhus,Denmark,Modern cuisine,https://guide.michelin.com/dk/en/central-denmark/aarhus/restaurant/domestic,1,73.59995161137726,127.12718914692437
106,Substans,56.15415,10.20372,Aarhus,Denmark,Modern cuisine,https://guide.michelin.com/dk/en/central-denmark/aarhus/restaurant/substans,1,107.0544750710942,160.5817126066413
107,Frederikshøj,56.12497,10.208638,Aarhus,Denmark,Creative,https://guide.michelin.com/dk/en/central-denmark/aarhus/restaurant/frederikshoj,1,153.22171744550357,153.22171744550357
108,Ti Trin Ned,55.566590000000005,9.752689,Fredericia,Denmark,Modern cuisine,https://guide.michelin.com/dk/en/southern-denmark/fredericia/restaurant/ti-trin-ned,1,117.09083210900928,160.5817126066413
109,Slotskøkkenet,55.771236,11.390805,Hørve,Denmark,Creative,https://guide.michelin.com/dk/en/zealand/horve/restaurant/slotskokkenet,1,133.81809383886775,160.5817126066413
110,Søllerød Kro,55.81325,12.49548,København,Denmark,Modern cuisine,https://guide.michelin.com/dk/en/capital-region/kobenhavn/restaurant/sollerod-kro,1,52.858147066352764,175.30170292891677
111,Jordnær,55.748226,12.541014,København,Denmark,Danish,https://guide.michelin.com/dk/en/capital-region/kobenhavn/restaurant/jordnaer,1,113.74537976303759,173.96352199052808
112,Relæ,55.693233,12.543222,København,Denmark,Modern cuisine,https://guide.michelin.com/dk/en/capital-region/kobenhavn/restaurant/relae,1,63.56359457346218,119.76719398578665
113,Kiin Kiin,55.691880000000005,12.55754,København,Denmark,Thai,https://guide.michelin.com/dk/en/capital-region/kobenhavn/restaurant/kiin-kiin,1,66.23995645023953,130.47264149289606
114,formel B,55.67031,12.537980000000001,København,Denmark,Modern cuisine,https://guide.michelin.com/dk/en/capital-region/kobenhavn/restaurant/formel-b,1,56.20359941232446,120.43628445498098
115,Kokkeriet,55.68768000000001,12.58492,København,Denmark,Modern cuisine,https://guide.michelin.com/dk/en/capital-region/kobenhavn/restaurant/kokkeriet,1,90.32721334123573,160.5817126066413
116,Clou,55.68342,12.58497,København,Denmark,Modern cuisine,https://guide.michelin.com/dk/en/capital-region/kobenhavn/restaurant/clou,1,214.1089501421884,214.1089501421884
117,Marchal,55.68034,12.58508,København,Denmark,Modern cuisine,https://guide.michelin.com/dk/en/capital-region/kobenhavn/restaurant/marchal,1,58.21087081990748,137.8326366540338
118,Kong Hans Kælder,55.6787,12.584003,København,Denmark,Classic french,https://guide.michelin.com/dk/en/capital-region/kobenhavn/restaurant/kong-hans-kaelder,1,129.13446055450737,276.3343637772619
119,Stud!o at The Standard,55.67799,12.59191,København,Denmark,Creative,https://guide.michelin.com/dk/en/capital-region/kobenhavn/restaurant/stud-o-at-the-standard,1,93.67266568720743,173.96352199052808
120,108,55.67785,12.598083500000001,København,Denmark,Modern cuisine,https://guide.michelin.com/dk/en/capital-region/kobenhavn/restaurant/108,1,70.25449926540557,153.89080791469792
121,Era Ora,55.673004000000006,12.591292,København,Denmark,Italian,https://guide.michelin.com/dk/en/capital-region/kobenhavn/restaurant/era-ora,1,64.23268504265653,171.28716011375073
122,Alouette,55.66265,12.57634,København,Denmark,Modern cuisine,https://guide.michelin.com/dk/en/capital-region/kobenhavn/restaurant/alouette,1,93.0035752180131,93.0035752180131
123,Frederiksminde,55.12416999999999,12.04623,Præstø,Denmark,Creative,https://guide.michelin.com/dk/en/zealand/praesto/restaurant/frederiksminde,1,73.59995161137726,186.6762409052205
124,Kadeau Bornholm,55.004569999999994,14.969216000000001,Pedersker,Denmark,Creative,https://guide.michelin.com/dk/en/capital-region/pedersker/restaurant/kadeau-bornholm,1,173.96352199052808,173.96352199052808
125,Ask,60.17236,24.95648,Helsingfors / Helsinki,Finland,Modern cuisine,https://guide.michelin.com/fi/en/uusimaa/helsingfors-helsinki/restaurant/ask,1,65.0,119.0
126,Grön,60.16446,24.93308,Helsingfors / Helsinki,Finland,Finnish,https://guide.michelin.com/fi/en/uusimaa/helsingfors-helsinki/restaurant/gron,1,58.0,58.0
127,Demo,60.164806000000006,24.941635,Helsingfors / Helsinki,Finland,Modern cuisine,https://guide.michelin.com/fi/en/uusimaa/helsingfors-helsinki/restaurant/demo,1,65.0,105.0
128,Olo,60.16616,24.947704,Helsingfors / Helsinki,Finland,Modern cuisine,https://guide.michelin.com/fi/en/uusimaa/helsingfors-helsinki/restaurant/olo,1,121.0,121.0
129,Palace,60.16556,24.952560000000002,Helsingfors / Helsinki,Finland,Modern cuisine,https://guide.michelin.com/fi/en/uusimaa/helsingfors-helsinki/restaurant/palace,1,62.0,169.0
130,Ora,60.157578,24.942947,Helsingfors / Helsinki,Finland,Modern cuisine,https://guide.michelin.com/fi/en/uusimaa/helsingfors-helsinki/restaurant/ora,1,89.0,89.0
131,Botrini's,38.023179999999996,23.793770000000002,Athína,Greece,Mediterranean,https://guide.michelin.com/gr/en/attica/athina/restaurant/botrini-s,1,65.0,120.0
132,Varoulko Seaside,37.937378,23.658576999999998,Athína,Greece,Seafood,https://guide.michelin.com/gr/en/attica/athina/restaurant/varoulko-seaside,1,42.0,60.0
133,Hytra,37.95818,23.71895,Athína,Greece,Modern cuisine,https://guide.michelin.com/gr/en/attica/athina/restaurant/hytra,1,59.0,86.0
134,Loaf On,22.379858,114.27188000000001,Hong Kong,Hong Kong,Cantonese,https://guide.michelin.com/hk/en/hong-kong-region/hong-kong/restaurant/loaf-on,1,23.160677431286324,57.90169357821581
135,Lei Garden (Kwun Tong),22.312672,114.22482,Hong Kong,Hong Kong,Cantonese,https://guide.michelin.com/hk/en/hong-kong-region/hong-kong/restaurant/lei-garden-kwun-tong,1,11.580338715643162,86.85254036732373
136,Tim Ho Wan (Sham Shui Po),22.32805,114.16665,Hong Kong,Hong Kong,Dim sum,https://guide.michelin.com/hk/en/hong-kong-region/hong-kong/restaurant/tim-ho-wan-sham-shui-po,1,3.4741016146929486,5.790169357821581
137,Lei Garden (Mong Kok),22.320219,114.17133000000001,Hong Kong,Hong Kong,Cantonese,https://guide.michelin.com/hk/en/hong-kong-region/hong-kong/restaurant/lei-garden-mong-kok,1,17.370508073464745,98.43287908296688
138,Ming Court,22.318314,114.16933,Hong Kong,Hong Kong,Cantonese,https://guide.michelin.com/hk/en/hong-kong-region/hong-kong/restaurant/ming-court,1,53.037951317645685,149.15476265748393
139,Yat Tung Heen (Jordan),22.308014,114.17147,Hong Kong,Hong Kong,Cantonese,https://guide.michelin.com/hk/en/hong-kong-region/hong-kong/restaurant/yat-tung-heen-jordan,1,33.35137550105231,115.80338715643163
140,Fu Ho (Tsim Sha Tsui),22.3022,114.17193999999999,Hong Kong,Hong Kong,Cantonese,https://guide.michelin.com/hk/en/hong-kong-region/hong-kong/restaurant/fu-ho-tsim-sha-tsui,1,28.950846789107906,173.70508073464745
141,Shang Palace,22.297325,114.177155,Hong Kong,Hong Kong,Cantonese,https://guide.michelin.com/hk/en/hong-kong-region/hong-kong/restaurant/shang-palace,1,40.53118550475107,160.7351013731271
142,IM Teppanyaki & Wine,22.280807,114.19211000000001,Hong Kong,Hong Kong,Teppanyaki,https://guide.michelin.com/hk/en/hong-kong-region/hong-kong/restaurant/im-teppanyaki-wine,1,37.057083890058124,231.60677431286325
143,Ah Yat Harbour View (Tsim Sha Tsui),22.296984,114.17197,Hong Kong,Hong Kong,Cantonese,https://guide.michelin.com/hk/en/hong-kong-region/hong-kong/restaurant/ah-yat-harbour-view-tsim-sha-tsui,1,34.74101614692949,254.76745174414958
144,Rech,22.293434,114.174034,Hong Kong,Hong Kong,Seafood,https://guide.michelin.com/hk/en/hong-kong-region/hong-kong/restaurant/rech,1,68.0923916479818,138.96406458771796
145,Spring Moon,22.294943,114.17182,Hong Kong,Hong Kong,Cantonese,https://guide.michelin.com/hk/en/hong-kong-region/hong-kong/restaurant/spring-moon,1,46.32135486257265,231.60677431286325
146,Imperial Treasure Fine Chinese Cuisine,22.296177,114.170006,Hong Kong,Hong Kong,Cantonese,https://guide.michelin.com/hk/en/hong-kong-region/hong-kong/restaurant/imperial-treasure-fine-chinese-cuisine,1,23.160677431286324,115.80338715643163
147,Sushi Tokami,22.296112,114.16916,Hong Kong,Hong Kong,Sushi,https://guide.michelin.com/hk/en/hong-kong-region/hong-kong/restaurant/sushi-tokami,1,92.6427097251453,138.96406458771796
148,Tosca,22.30357,114.16006999999999,Hong Kong,Hong Kong,Italian,https://guide.michelin.com/hk/en/hong-kong-region/hong-kong/restaurant/tosca352519,1,51.87991744608137,197.79218526318522
149,Épure,22.29583,114.169304,Hong Kong,Hong Kong,French,https://guide.michelin.com/hk/en/hong-kong-region/hong-kong/restaurant/epure,1,44.93171421669547,218.63679495134292
150,Yee Tung Heen,22.282295,114.18413500000001,Hong Kong,Hong Kong,Cantonese,https://guide.michelin.com/hk/en/hong-kong-region/hong-kong/restaurant/yee-tung-heen,1,28.950846789107906,115.80338715643163
151,Yè Shanghai (Tsim Sha Tsui),22.295143,114.16823600000001,Hong Kong,Hong Kong,Shanghainese,https://guide.michelin.com/hk/en/hong-kong-region/hong-kong/restaurant/ye-shanghai-tsim-sha-tsui,1,17.370508073464745,69.48203229385898
152,Ho Hung Kee,22.280058,114.18364,Hong Kong,Hong Kong,Noodles and congee,https://guide.michelin.com/hk/en/hong-kong-region/hong-kong/restaurant/ho-hung-kee,1,11.580338715643162,23.160677431286324
153,Jardin de Jade (Wan Chai),22.28025,114.17716000000001,Hong Kong,Hong Kong,Shanghainese,https://guide.michelin.com/hk/en/hong-kong-region/hong-kong/restaurant/jardin-de-jade-wan-chai,1,23.160677431286324,57.90169357821581
154,Zhejiang Heen,22.2787,114.17763000000001,Hong Kong,Hong Kong,Shanghainese,https://guide.michelin.com/hk/en/hong-kong-region/hong-kong/restaurant/zhejiang-heen,1,23.160677431286324,57.90169357821581
155,Takumi by Daisuke Mori,22.276512,114.17718,Hong Kong,Hong Kong,Innovative,https://guide.michelin.com/hk/en/hong-kong-region/hong-kong/restaurant/takumi-by-daisuke-mori,1,101.90698069765983,310.35307757923675
156,Kam's Roast Goose,22.277693,114.175385,Hong Kong,Hong Kong,Cantonese roast meats,https://guide.michelin.com/hk/en/hong-kong-region/hong-kong/restaurant/kam-s-roast-goose,1,5.790169357821581,17.370508073464745
157,Pang's Kitchen,22.26921,114.18451999999999,Hong Kong,Hong Kong,Cantonese,https://guide.michelin.com/hk/en/hong-kong-region/hong-kong/restaurant/pang-s-kitchen,1,10.769715005548141,57.90169357821581
158,Xin Rong Ji,22.278013,114.17273,Hong Kong,Hong Kong,Taizhou,https://guide.michelin.com/hk/en/hong-kong-region/hong-kong/restaurant/xin-rong-ji,1,40.53118550475107,115.80338715643163
159,Qi (Wan Chai),22.276443,114.17126,Hong Kong,Hong Kong,Sichuan,https://guide.michelin.com/hk/en/hong-kong-region/hong-kong/restaurant/qi-wan-chai,1,13.896406458771795,86.85254036732373
160,Man Wah,22.282213,114.15951000000001,Hong Kong,Hong Kong,Cantonese,https://guide.michelin.com/hk/en/hong-kong-region/hong-kong/restaurant/man-wah,1,57.90169357821581,185.2854194502906
161,Summer Palace,22.277136,114.1643,Hong Kong,Hong Kong,Cantonese,https://guide.michelin.com/hk/en/hong-kong-region/hong-kong/restaurant/summer-palace,1,32.002325502319835,166.67877865791579
162,Octavium,22.282587,114.1572,Hong Kong,Hong Kong,Italian,https://guide.michelin.com/hk/en/hong-kong-region/hong-kong/restaurant/octavium,1,44.00528711944402,182.96935170716196
163,Arbor,22.283146,114.15541999999999,Hong Kong,Hong Kong,Innovative,https://guide.michelin.com/hk/en/hong-kong-region/hong-kong/restaurant/arbor,1,56.512052932338634,218.63679495134292
164,Mandarin Grill + Bar,22.281048000000002,114.1574,Hong Kong,Hong Kong,European contemporary,https://guide.michelin.com/hk/en/hong-kong-region/hong-kong/restaurant/mandarin-grill-bar,1,68.0923916479818,243.18711302850642
165,Yat Lok,22.28226,114.15565500000001,Hong Kong,Hong Kong,Cantonese roast meats,https://guide.michelin.com/hk/en/hong-kong-region/hong-kong/restaurant/yat-lok,1,6.948203229385897,41.689219376315386
166,Guo Fu Lou,22.278313,114.16033999999999,Hong Kong,Hong Kong,Cantonese,https://guide.michelin.com/hk/en/hong-kong-region/hong-kong/restaurant/guo-fu-lou567828,1,46.32135486257265,231.60677431286325
167,Celebrity Cuisine,22.284334,114.15312,Hong Kong,Hong Kong,Cantonese,https://guide.michelin.com/hk/en/hong-kong-region/hong-kong/restaurant/celebrity-cuisine,1,23.160677431286324,115.80338715643163
168,Sushi Wadatsumi,22.281038,114.15646000000001,Hong Kong,Hong Kong,Sushi,https://guide.michelin.com/hk/en/hong-kong-region/hong-kong/restaurant/sushi-wadatsumi,1,55.58562583508718,324.2494840380086
169,Arcane,22.280624,114.15682,Hong Kong,Hong Kong,European contemporary,https://guide.michelin.com/hk/en/hong-kong-region/hong-kong/restaurant/arcane,1,40.53118550475107,115.80338715643163
170,Duddell's,22.280079999999998,114.15736399999999,Hong Kong,Hong Kong,Cantonese,https://guide.michelin.com/hk/en/hong-kong-region/hong-kong/restaurant/duddell-s,1,52.11152422039423,115.80338715643163
171,Beefbar,22.27982,114.15751999999999,Hong Kong,Hong Kong,Steakhouse,https://guide.michelin.com/hk/en/hong-kong-region/hong-kong/restaurant/beefbar,1,37.057083890058124,173.70508073464745
172,New Punjab Club,22.28005,114.15525,Hong Kong,Hong Kong,Indian,https://guide.michelin.com/hk/en/hong-kong-region/hong-kong/restaurant/new-punjab-club,1,34.74101614692949,92.6427097251453
173,Kaiseki Den by Saotome,22.285713,114.147865,Hong Kong,Hong Kong,Japanese,https://guide.michelin.com/hk/en/hong-kong-region/hong-kong/restaurant/kaiseki-den-by-saotome,1,287.1924001479504,414.57612602002524
174,Belon,22.281662,114.152405,Hong Kong,Hong Kong,French,https://guide.michelin.com/hk/en/hong-kong-region/hong-kong/restaurant/belon,1,53.037951317645685,172.31544008877026
175,The Ocean,22.235146,114.198524,Hong Kong,Hong Kong,French,https://guide.michelin.com/hk/en/hong-kong-region/hong-kong/restaurant/the-ocean,1,104.22304844078846,149.15476265748393
176,Costes Downtown,47.501129999999996,19.048595000000002,Budapest,Hungary,Modern cuisine,https://guide.michelin.com/hu/en/central-hungary/budapest/restaurant/costes-downtown,1,23.719109822649035,72.05805515741478
177,Borkonyha Winekitchen,47.49953,19.052391,Budapest,Hungary,Modern cuisine,https://guide.michelin.com/hu/en/central-hungary/budapest/restaurant/borkonyha-winekitchen,1,27.17189163227516,47.58834059354268
178,Stand,47.500244,19.059624,Budapest,Hungary,Modern cuisine,https://guide.michelin.com/hu/en/central-hungary/budapest/restaurant/stand,1,22.51814223669212,58.54716981539951
179,Babel,47.492603,19.05256,Budapest,Hungary,Modern cuisine,https://guide.michelin.com/hu/en/central-hungary/budapest/restaurant/babel,1,75.06047412230707,75.06047412230707
180,Costes,47.48873,19.061779,Budapest,Hungary,Modern cuisine,https://guide.michelin.com/hu/en/central-hungary/budapest/restaurant/costes,1,63.050798262737935,79.86434446613472
181,The Kitchen,22.191442000000002,113.54299999999999,Macau,Macau,Steakhouse,https://guide.michelin.com/mo/en/macau-region/macau/restaurant/the-kitchen417810,1,48.34510337598602,185.51028039622543
182,Tim's Kitchen,22.189898,113.5439,Macau,Macau,Cantonese,https://guide.michelin.com/mo/en/macau-region/macau/restaurant/tim-s-kitchen,1,22.486094593481866,179.88875674785493
183,Wing Lei,22.188028,113.54578000000001,Macau,Macau,Cantonese,https://guide.michelin.com/mo/en/macau-region/macau/restaurant/wing-lei,1,22.486094593481866,224.8609459348187
184,King,22.190178,113.54028000000001,Macau,Macau,Cantonese,https://guide.michelin.com/mo/en/macau-region/macau/restaurant/king380226,1,16.864570945111403,56.21523648370467
185,Ying,22.161234,113.55540500000001,Macau,Macau,Cantonese,https://guide.michelin.com/mo/en/macau-region/macau/restaurant/ying,1,22.486094593481866,146.15961485763214
186,Shinji by Kanesaka,22.149635,113.56397,Macau,Macau,Sushi,https://guide.michelin.com/mo/en/macau-region/macau/restaurant/shinji-by-kanesaka,1,82.97368904994809,335.9422532266191
187,The Golden Peacock,22.148178,113.56335,Macau,Macau,Indian,https://guide.michelin.com/mo/en/macau-region/macau/restaurant/the-golden-peacock,1,22.261233647547048,67.45828378044561
188,Zi Yat Heen,22.145418,113.56152,Macau,Macau,Cantonese,https://guide.michelin.com/mo/en/macau-region/macau/restaurant/zi-yat-heen,1,33.729141890222806,337.29141890222803
189,8 1/2 Otto e Mezzo - Bombana,22.149179999999998,113.55393000000001,Macau,Macau,Italian,https://guide.michelin.com/mo/en/macau-region/macau/restaurant/8-1-2-otto-e-mezzo-bombana,1,54.86607080809576,245.09843106895235
190,Pearl Dragon,22.140524,113.56256,Macau,Macau,Cantonese,https://guide.michelin.com/mo/en/macau-region/macau/restaurant/pearl-dragon,1,39.35066553859327,167.29654377550509
191,Lai Heen,22.148754,113.551926,Macau,Macau,Cantonese,https://guide.michelin.com/mo/en/macau-region/macau/restaurant/lai-heen,1,33.729141890222806,234.7548275559507
192,FAGN,63.43391999999999,10.39628,Trondheim,Norway,Modern cuisine,https://guide.michelin.com/no/en/trondelag/trondheim/restaurant/fagn,1,74.42138858800597,137.4314975925177
193,Credo,63.43391,10.39631,Trondheim,Norway,Creative,https://guide.michelin.com/no/en/trondelag/trondheim/restaurant/credo,1,128.9970735525437,128.9970735525437
194,RE-NAA,58.972088,5.732876999999999,Stavanger,Norway,Creative,https://guide.michelin.com/no/en/rogaland/stavanger/restaurant/re-naa,1,158.76562898774608,158.76562898774608
195,Sabi Omakase,58.969936,5.7433133000000005,Stavanger,Norway,Sushi,https://guide.michelin.com/no/en/rogaland/stavanger/restaurant/sabi-omakase,1,148.34663458542525,148.34663458542525
196,Galt,59.91661,10.71369,Oslo,Norway,Modern cuisine,https://guide.michelin.com/no/en/oslo-region/oslo/restaurant/galt,1,51.10268683043077,85.83266817150022
197,Kontrast,59.92355,10.75106,Oslo,Norway,Scandinavian,https://guide.michelin.com/no/en/oslo-region/oslo/restaurant/kontrast,1,59.040968279818074,158.76562898774608
198,Statholdergaarden,59.909369999999996,10.74305,Oslo,Norway,Classic cuisine,https://guide.michelin.com/no/en/oslo-region/oslo/restaurant/statholdergaarden,1,101.21308847968812,118.57807915022285
199,Del Posto,40.74327,-74.0077,New York,New York City,Italian,https://guide.michelin.com/us/en/new-york-state/new-york/restaurant/del-posto,1,53.47176781289594,175.82242297799684
200,L'Appart,40.711903,-74.01544,New York,New York City,French,https://guide.michelin.com/us/en/new-york-state/new-york/restaurant/l-appart,1,135.94517240566765,167.66571263365677
201,Okuda,40.743793,-74.00633,New York,New York City,Japanese,https://guide.michelin.com/us/en/new-york-state/new-york/restaurant/okuda,1,113.2876436713897,222.04378159592383
202,Wallsé,40.73538,-74.00814,New York,New York City,Austrian,https://guide.michelin.com/us/en/new-york-state/new-york/restaurant/wallse,1,67.97258620283382,135.94517240566765
203,Jeju Noodle Bar,40.732952000000004,-74.00744,New York,New York City,Korean,https://guide.michelin.com/us/en/new-york-state/new-york/restaurant/jeju-noodle-bar,1,22.657528734277943,46.221358617927
204,Sushi Nakazawa,40.731716,-74.00451,New York,New York City,Japanese,https://guide.michelin.com/us/en/new-york-state/new-york/restaurant/sushi-nakazawa,1,67.97258620283382,135.94517240566765
205,Kosaka,40.738316,-74.00137,New York,New York City,Japanese,https://guide.michelin.com/us/en/new-york-state/new-york/restaurant/kosaka,1,67.97258620283382,140.47667815252325
206,Bâtard,40.719615999999995,-74.00589000000001,New York,New York City,Contemporary,https://guide.michelin.com/us/en/new-york-state/new-york/restaurant/batard,1,58.909574709122644,86.09860919025618
207,Hirohisa,40.72452,-74.003006,New York,New York City,Japanese,https://guide.michelin.com/us/en/new-york-state/new-york/restaurant/hirohisa,1,45.315057468555885,135.94517240566765
208,Blue Hill,40.7321,-73.9996,New York,New York City,American,https://guide.michelin.com/us/en/new-york-state/new-york/restaurant/blue-hill,1,86.09860919025618,97.88052413208071
209,ZZ's Clam Bar,40.727646,-74.00046,New York,New York City,Seafood,https://guide.michelin.com/us/en/new-york-state/new-york/restaurant/zz-s-clam-bar,1,67.97258620283382,135.94517240566765
210,Babbo,40.73233,-73.99916,New York,New York City,Italian,https://guide.michelin.com/us/en/new-york-state/new-york/restaurant/babbo,1,67.97258620283382,135.94517240566765
211,Carbone,40.727965999999995,-74.00017,New York,New York City,Italian,https://guide.michelin.com/us/en/new-york-state/new-york/restaurant/carbone,1,67.97258620283382,135.94517240566765
212,Le Coucou,40.719162,-74.00001,New York,New York City,French,https://guide.michelin.com/us/en/new-york-state/new-york/restaurant/le-coucou,1,40.78355172170029,117.81914941824529
213,Aldea,40.73885,-73.99365999999999,New York,New York City,Mediterranean,https://guide.michelin.com/us/en/new-york-state/new-york/restaurant/aldea,1,67.97258620283382,135.94517240566765
214,Cote,40.73778,-73.99375,New York,New York City,Korean,https://guide.michelin.com/us/en/new-york-state/new-york/restaurant/cote,1,45.315057468555885,163.13420688680117
215,Bouley at Home,40.74114,-73.99242,New York,New York City,Contemporary,https://guide.michelin.com/us/en/new-york-state/new-york/restaurant/bouley-at-home,1,45.315057468555885,67.97258620283382
216,Gotham Bar and Grill,40.73417,-73.99379,New York,New York City,American,https://guide.michelin.com/us/en/new-york-state/new-york/restaurant/gotham-bar-and-grill,1,67.97258620283382,135.94517240566765
217,Nix,40.733166,-73.993515,New York,New York City,Vegetarian,https://guide.michelin.com/us/en/new-york-state/new-york/restaurant/nix,1,45.315057468555885,67.97258620283382
218,Junoon,40.74325,-73.99077,New York,New York City,Indian,https://guide.michelin.com/us/en/new-york-state/new-york/restaurant/junoon,1,67.0662850534627,135.94517240566765
219,NoMad,40.74497,-73.98883000000001,New York,New York City,Contemporary,https://guide.michelin.com/us/en/new-york-state/new-york/restaurant/nomad,1,45.315057468555885,135.94517240566765
220,The Musket Room,40.723915000000005,-73.99375,New York,New York City,Contemporary,https://guide.michelin.com/us/en/new-york-state/new-york/restaurant/the-musket-room,1,67.97258620283382,145.00818389937882
221,Uncle Boons,40.721203,-73.99441,New York,New York City,Thai,https://guide.michelin.com/us/en/new-york-state/new-york/restaurant/uncle-boons,1,37.15834712421582,56.19067126100929
222,Noda,40.74497,-73.988075,New York,New York City,Japanese,https://guide.michelin.com/us/en/new-york-state/new-york/restaurant/noda,1,226.5752873427794,226.5752873427794
223,Gramercy Tavern,40.738490000000006,-73.98868,New York,New York City,Contemporary,https://guide.michelin.com/us/en/new-york-state/new-york/restaurant/gramercy-tavern,1,36.252045974844705,135.94517240566765
224,The Clocktower,40.7414,-73.987595,New York,New York City,Contemporary,https://guide.michelin.com/us/en/new-york-state/new-york/restaurant/the-clocktower,1,45.315057468555885,67.97258620283382
225,Ai Fiori,40.75013,-73.98357,New York,New York City,Italian,https://guide.michelin.com/us/en/new-york-state/new-york/restaurant/ai-fiori,1,48.940262066040354,135.94517240566765
226,Casa Mono,40.73595,-73.98706,New York,New York City,Spanish,https://guide.michelin.com/us/en/new-york-state/new-york/restaurant/casa-mono,1,45.315057468555885,67.97258620283382
227,Jewel Bako,40.727129999999995,-73.98928000000001,New York,New York City,Japanese,https://guide.michelin.com/us/en/new-york-state/new-york/restaurant/jewel-bako,1,45.315057468555885,145.00818389937882
228,The River Café,40.703613,-73.99477399999999,New York,New York City,Contemporary,https://guide.michelin.com/us/en/new-york-state/new-york/restaurant/the-river-cafe,1,48.940262066040354,158.6027011399456
229,Bar Uchū,40.72191,-73.99003,New York,New York City,Japanese,https://guide.michelin.com/us/en/new-york-state/new-york/restaurant/bar-uchu,1,90.63011493711177,231.106793089635
230,Café China,40.749973,-73.98228,New York,New York City,Chinese,https://guide.michelin.com/us/en/new-york-state/new-york/restaurant/cafe-china,1,27.18903448113353,58.00327355975153
231,Kanoyama,40.730709999999995,-73.98655,New York,New York City,Japanese,https://guide.michelin.com/us/en/new-york-state/new-york/restaurant/kanoyama,1,45.315057468555885,68.87888735220494
232,Contra,40.719916999999995,-73.98921999999999,New York,New York City,Contemporary,https://guide.michelin.com/us/en/new-york-state/new-york/restaurant/contra,1,67.97258620283382,135.94517240566765
233,Atomix,40.744408,-73.98292,New York,New York City,Korean,https://guide.michelin.com/us/en/new-york-state/new-york/restaurant/atomix,1,185.7917356210791,185.7917356210791
234,Kyo Ya,40.7266,-73.98526,New York,New York City,Japanese,https://guide.michelin.com/us/en/new-york-state/new-york/restaurant/kyo-ya,1,45.315057468555885,67.97258620283382
235,Kajitsu,40.727759999999996,-73.98428,New York,New York City,Japanese,https://guide.michelin.com/us/en/new-york-state/new-york/restaurant/kajitsu,1,87.91121148899842,115.10024597013194
236,Agern,40.752340000000004,-73.9775,New York,New York City,Scandinavian,https://guide.michelin.com/us/en/new-york-state/new-york/restaurant/agern,1,36.252045974844705,140.47667815252325
237,Caviar Russe,40.760684999999995,-73.97355,New York,New York City,Contemporary,https://guide.michelin.com/us/en/new-york-state/new-york/restaurant/caviar-russe,1,86.09860919025618,135.03887125629652
238,Tuome,40.724194,-73.9828,New York,New York City,Fusion,https://guide.michelin.com/us/en/new-york-state/new-york/restaurant/tuome,1,22.657528734277943,45.315057468555885
239,Tempura Matsui,40.74839,-73.97474,New York,New York City,Japanese,https://guide.michelin.com/us/en/new-york-state/new-york/restaurant/tempura-matsui,1,36.252045974844705,208.44926435535706
240,Sushi Yasuda,40.75108,-73.97364,New York,New York City,Japanese,https://guide.michelin.com/us/en/new-york-state/new-york/restaurant/sushi-yasuda,1,135.03887125629652,135.03887125629652
241,Sushi Amane,40.751329999999996,-73.971725,New York,New York City,Japanese,https://guide.michelin.com/us/en/new-york-state/new-york/restaurant/sushi-amane,1,135.03887125629652,226.5752873427794
242,Café Boulud,40.774390000000004,-73.96414,New York,New York City,French,https://guide.michelin.com/us/en/new-york-state/new-york/restaurant/cafe-boulud,1,67.97258620283382,135.94517240566765
243,Claro,40.677395000000004,-73.98615,New York,New York City,Mexican,https://guide.michelin.com/us/en/new-york-state/new-york/restaurant/claro,1,22.657528734277943,45.315057468555885
244,Satsuki,40.801243,-73.95187,New York,New York City,Japanese,https://guide.michelin.com/us/en/new-york-state/new-york/restaurant/satsuki,1,67.97258620283382,135.94517240566765
245,Sushi Noz,40.77384,-73.958275,New York,New York City,Japanese,https://guide.michelin.com/us/en/new-york-state/new-york/restaurant/sushi-noz,1,67.97258620283382,135.94517240566765
246,Sushi Inoue,40.810448,-73.943726,New York,New York City,Japanese,https://guide.michelin.com/us/en/new-york-state/new-york/restaurant/sushi-inoue,1,135.03887125629652,362.5204597484471
247,Meadowsweet,40.710353999999995,-73.96316999999999,New York,New York City,Mediterranean,https://guide.michelin.com/us/en/new-york-state/new-york/restaurant/meadowsweet,1,45.315057468555885,67.97258620283382
248,Casa Enríque,40.743491999999996,-73.95425,New York,New York City,Mexican,https://guide.michelin.com/us/en/new-york-state/new-york/restaurant/casa-enrique,1,27.18903448113353,54.37806896226706
249,Peter Luger,40.70986,-73.96263,New York,New York City,Steakhouse,https://guide.michelin.com/us/en/new-york-state/new-york/restaurant/peter-luger,1,67.97258620283382,135.94517240566765
250,Oxomoco,40.730057,-73.95538,New York,New York City,Mexican,https://guide.michelin.com/us/en/new-york-state/new-york/restaurant/oxomoco,1,45.315057468555885,67.97258620283382
251,The Finch,40.68704,-73.96297,New York,New York City,American,https://guide.michelin.com/us/en/new-york-state/new-york/restaurant/the-finch,1,45.315057468555885,90.63011493711177
252,Faro,40.707584000000004,-73.923035,New York,New York City,American,https://guide.michelin.com/us/en/new-york-state/new-york/restaurant/faro,1,22.657528734277943,104.22463217767853
253,Senses,52.244583,21.005886,Warszawa,Poland,Modern cuisine,https://guide.michelin.com/pl/en/masovia/warszawa/restaurant/senses,1,75.12119748822887,129.11455818289338
254,atelier Amaro,52.217079999999996,21.037679999999998,Warszawa,Poland,Modern cuisine,https://guide.michelin.com/pl/en/masovia/warszawa/restaurant/atelier-amaro,1,35.21306132260728,98.59657170330038
255,Aniar,53.271119999999996,-9.057078,Gaillimh/Galway,Ireland,Creative,https://guide.michelin.com/ie/en/galway/gaillimh-galway/restaurant/aniar,1,75.0,105.0
256,Loam,53.27384,-9.044447,Gaillimh/Galway,Ireland,Creative,https://guide.michelin.com/ie/en/galway/gaillimh-galway/restaurant/loam,1,55.0,99.0
257,Wild Honey Inn,53.03151,-9.2911,Lios Dúin Bhearna/Lisdoonvarna,Ireland,Classic cuisine,https://guide.michelin.com/ie/en/clare/lios-duin-bhearna-lisdoonvarna/restaurant/wild-honey-inn,1,50.0,60.0
258,Chestnut,51.562588,-9.460854,Ballydehob,Ireland,Modern cuisine,https://guide.michelin.com/ie/en/cork/ballydehob/restaurant/chestnut,1,60.0,85.0
259,Mews,51.48285,-9.37234,Baltimore,Ireland,Modern cuisine,https://guide.michelin.com/ie/en/cork/ie-baltimore/restaurant/mews,1,95.0,95.0
260,Ichigo Ichie,51.898167,-8.479933,Corcaigh/Cork,Ireland,Japanese,https://guide.michelin.com/ie/en/cork/corcaigh-cork/restaurant/ichigo-ichie,1,120.0,135.0
261,Chapter One,53.354374,-6.263786,City Centre,Ireland,Modern cuisine,https://guide.michelin.com/ie/en/dublin/city-centre/restaurant/chapter-one,1,42.0,115.0
262,Greenhouse,53.340042000000004,-6.258506,City Centre,Ireland,Modern cuisine,https://guide.michelin.com/ie/en/dublin/city-centre/restaurant/greenhouse,1,52.22107851613225,179.87260377778887
263,L'Ecrivain,53.33626999999999,-6.24834,City Centre,Ireland,Modern cuisine,https://guide.michelin.com/ie/en/dublin/city-centre/restaurant/l-ecrivain,1,37.0,115.0
264,Campagne,52.6559,-7.2464285,Cill Chainnigh/Kilkenny,Ireland,Modern british,https://guide.michelin.com/ie/en/kilkenny/cill-chainnigh-kilkenny/restaurant/campagne,1,38.0,60.0
265,Heron & Grey,53.30143,-6.177574,Blackrock,Ireland,Modern cuisine,https://guide.michelin.com/ie/en/dun-laoghaire-rathdown/blackrock/restaurant/heron-grey,1,58.0,96.0
266,Lady Helen,52.526095999999995,-7.188277,Baile Mhic Andáin/Thomastown,Ireland,Modern cuisine,https://guide.michelin.com/ie/en/kilkenny/baile-mhic-andain-thomastown/restaurant/lady-helen,1,75.0,115.0
267,House,51.94777,-7.713539599999999,Aird Mhór/Ardmore,Ireland,Modern cuisine,https://guide.michelin.com/ie/en/waterford/aird-mhor-ardmore/restaurant/house,1,88.0,110.0
268,Olympe,-22.96109,-43.206579999999995,Rio de Janeiro - 22470,Rio de Janeiro,French,https://guide.michelin.com/br/en/rio-de-janeiro-region/rio-de-janeiro/restaurant/olympe,1,38.52616080423251,99.06727063945502
269,Lasai,-22.95401,-43.195570000000004,Rio de Janeiro - 22271,Rio de Janeiro,Modern,https://guide.michelin.com/br/en/rio-de-janeiro-region/rio-de-janeiro/restaurant/lasai,1,64.94409964142051,75.95157415691551
270,Oteque,-22.95747,-43.194424,Rio de Janeiro - 22271,Rio de Janeiro,Modern,https://guide.michelin.com/br/en/rio-de-janeiro-region/rio-de-janeiro/restaurant/oteque,1,75.95157415691551,75.95157415691551
271,Mee,-22.96764,-43.17925,Rio de Janeiro - 22021,Rio de Janeiro,Asian influences,https://guide.michelin.com/br/en/rio-de-janeiro-region/rio-de-janeiro/restaurant/mee,1,26.417938837188007,85.85830122086102
272,Cipriani,-22.96755,-43.17901,Rio de Janeiro - 22021,Rio de Janeiro,Italian,https://guide.michelin.com/br/en/rio-de-janeiro-region/rio-de-janeiro/restaurant/cipriani,1,48.43288786817801,92.46278593015802
273,Jun Sakamoto,-23.56318,-46.67737,São Paulo - 05413,Sao Paulo,Japanese,https://guide.michelin.com/br/en/sao-paulo-region/sao-paulo/restaurant/jun-sakamoto,1,36.32466590113351,80.35456396311352
274,Maní,-23.56621,-46.67974,São Paulo - 05415,Sao Paulo,Creative,https://guide.michelin.com/br/en/sao-paulo-region/sao-paulo/restaurant/mani,1,27.298536798427605,103.47026044565303
275,Evvai,-23.567078,-46.679146,São Paulo - 05415,Sao Paulo,Modern,https://guide.michelin.com/br/en/sao-paulo-region/sao-paulo/restaurant/evvai,1,26.417938837188007,58.33961493212351
276,Picchi,-23.565063000000002,-46.666767,São Paulo - 01426,Sao Paulo,Italian,https://guide.michelin.com/br/en/sao-paulo-region/sao-paulo/restaurant/picchi,1,34.12317099803451,92.46278593015802
277,Kosushi,-23.58522,-46.6809,São Paulo - 04538,Sao Paulo,Japanese,https://guide.michelin.com/br/en/sao-paulo-region/sao-paulo/restaurant/kosushi,1,17.611959224792002,41.82840315888101
278,Ryo Gastronomia,-23.58132,-46.6767,São Paulo - 04531,Sao Paulo,Japanese,https://guide.michelin.com/br/en/sao-paulo-region/sao-paulo/restaurant/ryo-gastronomia,1,33.02242354648501,57.238867480574015
279,Tangará Jean-Georges,-23.634005,-46.72428,São Paulo - 05706,Sao Paulo,Modern,https://guide.michelin.com/br/en/sao-paulo-region/sao-paulo/restaurant/tangara-jean-georges,1,41.16795468795131,114.47773496114803
280,Kinoshita,-23.59159,-46.671459999999996,São Paulo - 04509,Sao Paulo,Japanese,https://guide.michelin.com/br/en/sao-paulo-region/sao-paulo/restaurant/kinoshita,1,38.52616080423251,79.25381651156401
281,Kan Suke,-23.5684,-46.649359999999994,São Paulo - 01401,Sao Paulo,Japanese,https://guide.michelin.com/br/en/sao-paulo-region/sao-paulo/restaurant/kan-suke,1,26.417938837188007,70.88813587978781
282,Huto,-23.60882,-46.6598,São Paulo - 04080,Sao Paulo,Japanese,https://guide.michelin.com/br/en/sao-paulo-region/sao-paulo/restaurant/huto,1,39.626908255782006,64.94409964142051
283,Stay,37.513003999999995,127.10257,Seoul,South Korea,French contemporary,https://guide.michelin.com/kr/en/seoul-capital-area/kr-seoul/restaurant/stay,1,45.417238894512145,156.61116860176602
284,Lee Jong Kuk 104,37.592903,126.99728400000001,Seoul,South Korea,Korean,https://guide.michelin.com/kr/en/seoul-capital-area/kr-seoul/restaurant/lee-jong-kuk-104,1,117.45837645132451,391.5279215044151
285,Hansikgonggan,37.577705,126.98852,Seoul,South Korea,Korean,https://guide.michelin.com/kr/en/seoul-capital-area/kr-seoul/restaurant/hansikgonggan,1,46.98335058052981,93.96670116105962
286,Dining in Space,37.57761,126.98845,Seoul,South Korea,French contemporary,https://guide.michelin.com/kr/en/seoul-capital-area/kr-seoul/restaurant/dining-in-space,1,58.729188225662256,117.45837645132451
287,Exquisine,37.521046000000005,127.04973600000001,Seoul,South Korea,Innovative,https://guide.michelin.com/kr/en/seoul-capital-area/kr-seoul/restaurant/exquisine,1,39.152792150441506,78.30558430088301
288,Dosa,37.52445,127.04441000000001,Seoul,South Korea,Innovative,https://guide.michelin.com/kr/en/seoul-capital-area/kr-seoul/restaurant/dosa511871,1,39.152792150441506,101.79725959114792
289,Joo Ok,37.52252,127.04396000000001,Seoul,South Korea,Korean contemporary,https://guide.michelin.com/kr/en/seoul-capital-area/kr-seoul/restaurant/joo-ok,1,49846.56321541147,99693.12643082294
290,Balwoo Gongyang,37.573890000000006,126.98318,Seoul,South Korea,Temple cuisine,https://guide.michelin.com/kr/en/seoul-capital-area/kr-seoul/restaurant/balwoo-gongyang,1,27189.03448113353,86098.60919025617
291,Muoki,37.518963,127.04217,Seoul,South Korea,Innovative,https://guide.michelin.com/kr/en/seoul-capital-area/kr-seoul/restaurant/muoki,1,46.98335058052981,97.88198037610377
292,L'Amitié,37.522675,127.032646,Seoul,South Korea,French,https://guide.michelin.com/kr/en/seoul-capital-area/kr-seoul/restaurant/l-amitie,1,49846.56321541147,135945.17240566766
293,Yu Yuan,37.57045,126.97533999999999,Seoul,South Korea,Chinese,https://guide.michelin.com/kr/en/seoul-capital-area/kr-seoul/restaurant/yu-yuan,1,46.98335058052981,211.42507761238414
294,Bicena,37.5384,127.00135,Seoul,South Korea,Korean,https://guide.michelin.com/kr/en/seoul-capital-area/kr-seoul/restaurant/bicena,1,54.81390901061811,148.78061017167772
295,Mosu,37.536415000000005,126.99933999999999,Seoul,South Korea,Innovative,https://guide.michelin.com/kr/en/seoul-capital-area/kr-seoul/restaurant/mosu,1,187.93340232211924,187.93340232211924
296,Poom,37.54903,126.98341,Seoul,South Korea,Korean,https://guide.michelin.com/kr/en/seoul-capital-area/kr-seoul/restaurant/poom,1,63.310064907263914,180.88589973503977
297,Soigné,37.49816,127.00200000000001,Seoul,South Korea,Innovative,https://guide.michelin.com/kr/en/seoul-capital-area/kr-seoul/restaurant/soigne,1,50.89862979557396,113.54309723628037
298,Table for Four,37.497690000000006,126.99441999999999,Seoul,South Korea,European contemporary,https://guide.michelin.com/kr/en/seoul-capital-area/kr-seoul/restaurant/table-for-four,1,39.152792150441506,78.30558430088301
299,Zero Complex,37.494170000000004,126.9948,Seoul,South Korea,Innovative,https://guide.michelin.com/kr/en/seoul-capital-area/kr-seoul/restaurant/zero-complex,1,54.81390901061811,101.79725959114792
300,Jin Jin,37.55777,126.91323999999999,Seoul,South Korea,Chinese,https://guide.michelin.com/kr/en/seoul-capital-area/kr-seoul/restaurant/jin-jin,1,14.486533095663358,58.729188225662256
301,Gotgan,37.52212,126.92022,Seoul,South Korea,Korean,https://guide.michelin.com/kr/en/seoul-capital-area/kr-seoul/restaurant/gotgan,1,117.45837645132451,234.91675290264902
302,Hill Street Tai Hwa Pork Noodle,1.3052,103.8624,Singapore,Singapore,Street food,https://guide.michelin.com/sg/en/singapore-region/singapore/restaurant/hill-street-tai-hwa-pork-noodle,1,3.333575573158316,6.667151146316632
303,Putien (Kitchener Road),1.30969,103.8573,Singapore,Singapore,Fujian,https://guide.michelin.com/sg/en/singapore-region/singapore/restaurant/putien-kitchener-road,1,20.001453438949895,33.33575573158316
304,Chef Kang's,1.304735,103.84955,Singapore,Singapore,Cantonese,https://guide.michelin.com/sg/en/singapore-region/singapore/restaurant/chef-kang-s,1,53.33720917053306,80.00581375579958
305,Garibaldi,1.296564,103.855,Singapore,Singapore,Italian,https://guide.michelin.com/sg/en/singapore-region/singapore/restaurant/garibaldi,1,26.001889470634865,152.01104613601922
306,Summer Pavilion,1.291284,103.8603,Singapore,Singapore,Cantonese,https://guide.michelin.com/sg/en/singapore-region/singapore/restaurant/summer-pavilion,1,38.66947664863647,133.34302292633265
307,Shinji (Bras Basah Road),1.2959028000000001,103.8539,Singapore,Singapore,Sushi,https://guide.michelin.com/sg/en/singapore-region/singapore/restaurant/shinji-bras-basah-road,1,50.00363359737474,333.35755731583157
308,The Song of India,1.310767,103.8353,Singapore,Singapore,Indian,https://guide.michelin.com/sg/en/singapore-region/singapore/restaurant/the-song-of-india,1,24.001744126739876,99.34055208011782
309,Lei Garden,1.295228,103.8521,Singapore,Singapore,Cantonese,https://guide.michelin.com/sg/en/singapore-region/singapore/restaurant/lei-garden501509,1,20.001453438949895,60.004360316849684
310,Jaan,1.2931840000000001,103.8529,Singapore,Singapore,French contemporary,https://guide.michelin.com/sg/en/singapore-region/singapore/restaurant/jaan,1,65.338081233903,178.67965072128573
311,Labyrinth,1.2899688,103.8562,Singapore,Singapore,Innovative,https://guide.michelin.com/sg/en/singapore-region/singapore/restaurant/labyrinth,1,52.00377894126973,118.67529040443605
312,Cut,1.2853268,103.8607,Singapore,Singapore,Steakhouse,https://guide.michelin.com/sg/en/singapore-region/singapore/restaurant/cut,1,66.67151146316633,233.3502901210821
313,Alma,1.309123,103.834,Singapore,Singapore,European contemporary,https://guide.michelin.com/sg/en/singapore-region/singapore/restaurant/alma,1,26.001889470634865,131.34287758243764
314,Béni,1.3023790000000002,103.8366,Singapore,Singapore,French contemporary,https://guide.michelin.com/sg/en/singapore-region/singapore/restaurant/beni,1,58.67093008758636,172.0124995749691
315,Crystal Jade Golden Palace,1.303244,103.8353,Singapore,Singapore,Chinese,https://guide.michelin.com/sg/en/singapore-region/singapore/restaurant/crystal-jade-golden-palace,1,33.33575573158316,100.00726719474947
316,Imperial Treasure Fine Teochew Cuisine (Orchard),1.3032448,103.8349,Singapore,Singapore,Chinese,https://guide.michelin.com/sg/en/singapore-region/singapore/restaurant/imperial-treasure-fine-teochew-cuisine-orchard,1,20.001453438949895,118.67529040443605
317,Saint Pierre,1.2857809999999998,103.8538,Singapore,Singapore,French contemporary,https://guide.michelin.com/sg/en/singapore-region/singapore/restaurant/saint-pierre,1,45.336627794953095,172.0124995749691
318,Sushi Ichi,1.305105,103.8324,Singapore,Singapore,Sushi,https://guide.michelin.com/sg/en/singapore-region/singapore/restaurant/sushi-ichi,1,66.67151146316633,286.68749929161515
319,Sushi Kimura,1.3063718999999998,103.829475,Singapore,Singapore,Sushi,https://guide.michelin.com/sg/en/singapore-region/singapore/restaurant/sushi-kimura,1,80.00581375579958,266.6860458526653
320,Iggy's,1.305986,103.8294,Singapore,Singapore,European contemporary,https://guide.michelin.com/sg/en/singapore-region/singapore/restaurant/iggy-s,1,70.00508703632464,156.67805193844086
321,Braci,1.287212,103.84949,Singapore,Singapore,Italian contemporary,https://guide.michelin.com/sg/en/singapore-region/singapore/restaurant/braci,1,36.669331304741476,133.34302292633265
322,Jiang-Nan Chun,1.304937,103.8288,Singapore,Singapore,Cantonese,https://guide.michelin.com/sg/en/singapore-region/singapore/restaurant/jiang-nan-chun,1,33.33575573158316,120.00872063369937
323,Shinji (Tanglin Road),1.305821,103.8257,Singapore,Singapore,Sushi,https://guide.michelin.com/sg/en/singapore-region/singapore/restaurant/shinji-tanglin-road,1,83.33938932895789,400.0290687789979
324,Corner House,1.315121,103.8154,Singapore,Singapore,Innovative,https://guide.michelin.com/sg/en/singapore-region/singapore/restaurant/corner-house,1,52.00377894126973,178.67965072128573
325,Summer Palace,1.3043848,103.825,Singapore,Singapore,Cantonese,https://guide.michelin.com/sg/en/singapore-region/singapore/restaurant/summer-palace501658,1,32.002325502319835,166.67877865791579
326,Nouri,1.28086,103.84713,Singapore,Singapore,Innovative,https://guide.michelin.com/sg/en/singapore-region/singapore/restaurant/nouri,1,50.00363359737474,160.01162751159916
327,Liao Fan Hong Kong Soya Sauce Chicken Rice & Noodle,1.2824799999999998,103.8439,Singapore,Singapore,Street food,https://guide.michelin.com/sg/en/singapore-region/singapore/restaurant/liao-fan-hong-kong-soya-sauce-chicken-rice-noodle,1,2.0001453438949897,10.000726719474947
328,Burnt Ends,1.2805010000000001,103.8418,Singapore,Singapore,Barbecue,https://guide.michelin.com/sg/en/singapore-region/singapore/restaurant/burnt-ends,1,33.33575573158316,166.67877865791579
329,Rhubarb,1.279368,103.84299999999999,Singapore,Singapore,French contemporary,https://guide.michelin.com/sg/en/singapore-region/singapore/restaurant/rhubarb,1,34.669185960846484,98.67383696548616
330,Ma Cuisine,1.27826,103.84200000000001,Singapore,Singapore,French,https://guide.michelin.com/sg/en/singapore-region/singapore/restaurant/ma-cuisine,1,26.66860458526653,50.00363359737474
331,Candlenut,1.2797709,103.8402,Singapore,Singapore,Peranakan,https://guide.michelin.com/sg/en/singapore-region/singapore/restaurant/candlenut,1,13.334302292633264,85.33953467285289
332,Bhoga,57.70618,11.9624,Göteborg,Sweden,Creative,https://guide.michelin.com/se/en/vastra-gotaland/goteborg/restaurant/bhoga,1,56.2155047608911,84.32325714133665
333,Koka,57.698406000000006,11.965365,Göteborg,Sweden,Modern cuisine,https://guide.michelin.com/se/en/vastra-gotaland/goteborg/restaurant/koka,1,51.06241682447608,88.53941999840349
334,28+,57.69809,11.97377,Göteborg,Sweden,Modern cuisine,https://guide.michelin.com/se/en/vastra-gotaland/goteborg/restaurant/28,1,61.36859269730612,83.85479460166256
335,SK Mat & Människor,57.69688000000001,11.98338,Göteborg,Sweden,Modern cuisine,https://guide.michelin.com/se/en/vastra-gotaland/goteborg/restaurant/sk-mat-manniskor,1,52.46780444349836,60.90013015763203
336,Thörnströms Kök,57.69436999999999,11.977609,Göteborg,Sweden,Classic cuisine,https://guide.michelin.com/se/en/vastra-gotaland/goteborg/restaurant/thornstroms-kok,1,63.24244285600249,84.79171968101075
337,Upper House,57.69745,11.990210000000001,Göteborg,Sweden,Creative,https://guide.michelin.com/se/en/vastra-gotaland/goteborg/restaurant/upper-house,1,131.1695111087459,131.1695111087459
338,Agrikultur,59.34777,18.058629999999997,Stockholm,Sweden,Modern cuisine,https://guide.michelin.com/se/en/stockholm-region/stockholm/restaurant/agrikultur,1,88.53941999840349,88.53941999840349
339,Sushi Sho,59.341286,18.049892,Stockholm,Sweden,Japanese,https://guide.michelin.com/se/en/stockholm-region/stockholm/restaurant/sushi-sho,1,64.17936793535067,64.17936793535067
340,Volt,59.33866999999999,18.079683,Stockholm,Sweden,Creative,https://guide.michelin.com/se/en/stockholm-region/stockholm/restaurant/volt,1,70.26938095111387,89.00788253807758
341,Ekstedt,59.33674,18.075210000000002,Stockholm,Sweden,Meats and grills,https://guide.michelin.com/se/en/stockholm-region/stockholm/restaurant/ekstedt,1,83.38633206198847,117.11563491852313
342,Operakällaren,59.329876,18.071363,Stockholm,Sweden,Classic cuisine,https://guide.michelin.com/se/en/stockholm-region/stockholm/restaurant/operakallaren,1,98.37713333155942,145.22338729896867
343,Mathias Dahlgren-Matbaren,59.32935,18.075429999999997,Stockholm,Sweden,Modern cuisine,https://guide.michelin.com/se/en/stockholm-region/stockholm/restaurant/mathias-dahlgren-matbaren,1,43.567016189690605,119.45794761689359
344,Aloë,59.2842,17.985748,Stockholm,Sweden,Creative,https://guide.michelin.com/se/en/stockholm-region/stockholm/restaurant/aloe,1,149.9080126957096,149.9080126957096
345,PM & Vänner,56.878919999999994,14.803870000000002,Växjö,Sweden,Creative,https://guide.michelin.com/se/en/kronoberg/vaxjo/restaurant/pm-vanner,1,83.85479460166256,140.07029936255367
346,Bloom in the Park,55.59064,12.99794,Malmö,Sweden,Creative,https://guide.michelin.com/se/en/skane/malmo/restaurant/bloom-in-the-park,1,46.37779142773516,65.11629301469885
347,SAV,55.53376,13.00537,Malmö,Sweden,Creative,https://guide.michelin.com/se/en/skane/malmo/restaurant/sav,1,58.557817459261564,83.85479460166256
348,Golden Formosa,25.118216,121.53623,Taipei,Taipei,Taiwanese,https://guide.michelin.com/tw/en/taipei-region/taipei/restaurant/golden-formosa,1,14.914772515415164,23.863636024664263
349,Danny's Steakhouse,25.082657,121.552765,Taipei,Taipei,Steakhouse,https://guide.michelin.com/tw/en/taipei-region/taipei/restaurant/danny-s-steakhouse,1,37.28693128853791,101.42045310482311
350,L'Atelier de Joël Robuchon,25.039188,121.56771,Taipei,Taipei,French contemporary,https://guide.michelin.com/tw/en/taipei-region/taipei/restaurant/l-atelier-de-joel-robuchon550759,1,69.25042551954611,240.8710452853778
351,Kitcho,25.04429,121.55076000000001,Taipei,Taipei,Sushi,https://guide.michelin.com/tw/en/taipei-region/taipei/restaurant/kitcho,1,104.40340760790615,208.8068152158123
352,Tien Hsiang Lo,25.062696,121.529976,Taipei,Taipei,Hang zhou,https://guide.michelin.com/tw/en/taipei-region/taipei/restaurant/tien-hsiang-lo,1,23.863636024664263,196.87499720348018
353,Ya Ge,25.06625,121.52533000000001,Taipei,Taipei,Cantonese,https://guide.michelin.com/tw/en/taipei-region/taipei/restaurant/ya-ge,1,35.7954540369964,262.4999962713069
354,Da-Wan,25.043018,121.55018999999999,Taipei,Taipei,Barbecue,https://guide.michelin.com/tw/en/taipei-region/taipei/restaurant/da-wan,1,59.659090061660656,89.48863509249098
355,Sushi Nomura,25.036179999999998,121.55465,Taipei,Taipei,Sushi,https://guide.michelin.com/tw/en/taipei-region/taipei/restaurant/sushi-nomura,1,59.659090061660656,298.29545030830326
356,Ming Fu,25.06171,121.52399,Taipei,Taipei,Taiwanese,https://guide.michelin.com/tw/en/taipei-region/taipei/restaurant/ming-fu,1,44.74431754624549,59.659090061660656
357,Sushi Ryu,25.055832000000002,121.52723999999999,Taipei,Taipei,Sushi,https://guide.michelin.com/tw/en/taipei-region/taipei/restaurant/sushi-ryu,1,89.48863509249098,238.63636024664262
358,MUME,25.036266,121.54808999999999,Taipei,Taipei,European contemporary,https://guide.michelin.com/tw/en/taipei-region/taipei/restaurant/mume,1,50.710226552411555,65.62499906782672
359,Longtail,25.023922,121.54841,Taipei,Taipei,Innovative,https://guide.michelin.com/tw/en/taipei-region/taipei/restaurant/longtail,1,35.7954540369964,86.50568058940796
360,Mountain and Sea House,25.038045999999998,121.53139499999999,Taipei,Taipei,Taiwanese,https://guide.michelin.com/tw/en/taipei-region/taipei/restaurant/mountain-and-sea-house,1,29.232954130213724,139.60227074428593
361,Da San Yuan,25.042248,121.512215,Taipei,Taipei,Cantonese,https://guide.michelin.com/tw/en/taipei-region/taipei/restaurant/da-san-yuan,1,11.931818012332132,89.48863509249098
362,Tainan Tan Tsu Mien Seafood,25.03799,121.4984,Taipei,Taipei,Seafood,https://guide.michelin.com/tw/en/taipei-region/taipei/restaurant/tainan-tan-tsu-mien-seafood,1,35.7954540369964,152.13067965723468
363,Suan Thip,13.926962,100.502144,Bangkok,Thailand,Thai,https://guide.michelin.com/th/en/bangkok-region/bangkok/restaurant/suan-thip,1,8.943498286917622,35.77399314767049
364,Chim by Siam Wisdom,13.740706,100.56789,Bangkok,Thailand,Thai,https://guide.michelin.com/th/en/bangkok-region/bangkok/restaurant/chim-by-siam-wisdom,1,32.79282705203128,87.94439982135661
365,R-Haan,13.731805,100.57972,Bangkok,Thailand,Thai,https://guide.michelin.com/th/en/bangkok-region/bangkok/restaurant/r-haan,1,65.94339403553926,77.86805841809608
366,Canvas,13.728886,100.580826,Bangkok,Thailand,Innovative,https://guide.michelin.com/th/en/bangkok-region/bangkok/restaurant/canvas566292,1,71.54798629534098,86.453816773537
367,Bo.lan,13.726389000000001,100.57799,Bangkok,Thailand,Thai,https://guide.michelin.com/th/en/bangkok-region/bangkok/restaurant/bo-lan,1,23.849328765113658,97.78224793696599
368,Sra Bua by Kiin Kiin,13.754137,100.53451,Bangkok,Thailand,Thai contemporary,https://guide.michelin.com/th/en/bangkok-region/bangkok/restaurant/sra-bua-by-kiin-kiin,1,44.717491434588105,71.54798629534098
369,Elements,13.742977999999999,100.54798000000001,Bangkok,Thailand,French contemporary,https://guide.michelin.com/th/en/bangkok-region/bangkok/restaurant/elements,1,50.67982362586652,131.1713082081251
370,Paste,13.744594000000001,100.540565,Bangkok,Thailand,Thai,https://guide.michelin.com/th/en/bangkok-region/bangkok/restaurant/paste,1,41.7363253389489,107.32197944301146
371,Ginza Sushi ichi,13.744069,100.54092,Bangkok,Thailand,Sushi,https://guide.michelin.com/th/en/bangkok-region/bangkok/restaurant/ginza-sushi-ichi,1,53.66098972150573,208.6816266947445
372,Savelberg,13.738216,100.54642,Bangkok,Thailand,French contemporary,https://guide.michelin.com/th/en/bangkok-region/bangkok/restaurant/savelberg,1,47.698657530227315,166.9453013557956
373,Saneh Jaan,13.735739,100.54605,Bangkok,Thailand,Thai,https://guide.michelin.com/th/en/bangkok-region/bangkok/restaurant/saneh-jaan,1,13.415247430376432,74.52915239098017
374,Gaa,13.737805999999999,100.54275,Bangkok,Thailand,Innovative,https://guide.michelin.com/th/en/bangkok-region/bangkok/restaurant/gaa,1,65.58565410406256,83.4726506778978
375,Methavalai Sorndaeng,13.756321,100.502045,Bangkok,Thailand,Thai,https://guide.michelin.com/th/en/bangkok-region/bangkok/restaurant/methavalai-sorndaeng,1,14.905830478196036,29.81166095639207
376,Jay Fai,13.752614000000001,100.50466,Bangkok,Thailand,Street food,https://guide.michelin.com/th/en/bangkok-region/bangkok/restaurant/jay-fai,1,11.924664382556829,29.81166095639207
377,Nahm,13.724357000000001,100.53926,Bangkok,Thailand,Thai,https://guide.michelin.com/th/en/bangkok-region/bangkok/restaurant/nahm,1,38.75515924330969,59.62332191278414
378,J'AIME by Jean-Michel Lorain,13.718885,100.54632600000001,Bangkok,Thailand,French contemporary,https://guide.michelin.com/th/en/bangkok-region/bangkok/restaurant/j-aime-by-jean-michel-lorain,1,29.51354434682815,143.09597259068195
379,Le Du,13.725005,100.52939,Bangkok,Thailand,Thai,https://guide.michelin.com/th/en/bangkok-region/bangkok/restaurant/le-du,1,59.62332191278414,104.34081334737225
380,Ruean Panya,13.558403,100.28264,Bangkok,Thailand,Thai,https://guide.michelin.com/th/en/bangkok-region/bangkok/restaurant/ruean-panya,1,14.905830478196036,44.717491434588105
381,PRU,8.034298,98.2764,Phuket,Thailand,Innovative,https://guide.michelin.com/th/en/phuket-region/phuket/restaurant/pru,1,89.43498286917621,178.86996573835242
382,Blue Duck Tavern,38.905373,-77.05128,"Washington, D.C.",Washington DC,American,https://guide.michelin.com/us/en/washington/washington-dc/restaurant/blue-duck-tavern,1,43.50245516981365,97.88052413208071
383,Tail Up Goat,38.9235,-77.043274,"Washington, D.C.",Washington DC,Contemporary,https://guide.michelin.com/us/en/washington/washington-dc/restaurant/tail-up-goat,1,22.657528734277943,45.315057468555885
384,Komi,38.910107,-77.03836,"Washington, D.C.",Washington DC,Mediterranean,https://guide.michelin.com/us/en/washington/washington-dc/restaurant/komi,1,135.03887125629652,149.53968964623442
385,Sushi Taro,38.909991999999995,-77.03834,"Washington, D.C.",Washington DC,Japanese,https://guide.michelin.com/us/en/washington/washington-dc/restaurant/sushi-taro,1,67.97258620283382,135.94517240566765
386,Plume,38.906,-77.03671,"Washington, D.C.",Washington DC,European,https://guide.michelin.com/us/en/washington/washington-dc/restaurant/plume,1,67.97258620283382,135.94517240566765
387,Bresca,38.91584,-77.0321,"Washington, D.C.",Washington DC,Contemporary,https://guide.michelin.com/us/en/washington/washington-dc/restaurant/bresca,1,22.657528734277943,67.97258620283382
388,The Dabney,38.906292,-77.024666,"Washington, D.C.",Washington DC,American,https://guide.michelin.com/us/en/washington/washington-dc/restaurant/the-dabney,1,22.657528734277943,54.37806896226706
389,Métier,38.903503,-77.0218,"Washington, D.C.",Washington DC,Contemporary,https://guide.michelin.com/us/en/washington/washington-dc/restaurant/metier,1,67.97258620283382,135.94517240566765
390,Kinship,38.903282,-77.0218,"Washington, D.C.",Washington DC,Contemporary,https://guide.michelin.com/us/en/washington/washington-dc/restaurant/kinship,1,45.315057468555885,67.97258620283382
391,Fiola,38.89416,-77.02032,"Washington, D.C.",Washington DC,Italian,https://guide.michelin.com/us/en/washington/washington-dc/restaurant/fiola,1,45.315057468555885,135.94517240566765
392,Masseria,38.909504,-76.99908,"Washington, D.C.",Washington DC,Italian,https://guide.michelin.com/us/en/washington/washington-dc/restaurant/masseria,1,45.315057468555885,67.97258620283382
393,Rose's Luxury,38.88064,-76.99515,"Washington, D.C.",Washington DC,Contemporary,https://guide.michelin.com/us/en/washington/washington-dc/restaurant/rose-s-luxury,1,39.877250572329174,67.97258620283382
394,Loch Bay,57.514869999999995,-6.57114,Waternish,United Kingdom,Modern cuisine,https://guide.michelin.com/gb/en/highland/waternish/restaurant/loch-bay,1,39.455925989966595,81.23278880287239
395,Braidwoods,55.69474,-4.7425,Dalry,United Kingdom,Classic cuisine,https://guide.michelin.com/gb/en/north-ayrshire/dalry/restaurant/braidwoods,1,34.81405234408817,63.82576263082831
396,Eipic,54.595898,-5.932242400000001,Belfast,United Kingdom,Modern cuisine,https://guide.michelin.com/gb/en/belfast/belfast/restaurant/eipic,1,34.81405234408817,81.23278880287239
397,OX,54.59891,-5.9219800000000005,Belfast,United Kingdom,Modern british,https://guide.michelin.com/gb/en/belfast/belfast/restaurant/ox399109,1,25.530305052331325,69.62810468817634
398,The Peat Inn,56.27861,-2.8845797,Peat Inn,United Kingdom,Classic cuisine,https://guide.michelin.com/gb/en/fife/peat-inn/restaurant/the-peat-inn,1,29.01171028674014,90.51653609462925
399,Kitchin,55.976967,-3.1728419999999997,Leith,United Kingdom,Modern cuisine,https://guide.michelin.com/gb/en/city-of-edinburgh/leith/restaurant/kitchin,1,40.616394401436196,92.83747291756845
400,Martin Wishart,55.975519999999996,-3.1701900000000003,Leith,United Kingdom,Modern cuisine,https://guide.michelin.com/gb/en/city-of-edinburgh/leith/restaurant/martin-wishart,1,40.616394401436196,139.25620937635267
401,Number One,55.952980000000004,-3.18966,Edinburgh,United Kingdom,Modern cuisine,https://guide.michelin.com/gb/en/city-of-edinburgh/edinburgh/restaurant/number-one,1,104.4421570322645,121.84918320430859
402,21212,55.95674,-3.18018,Edinburgh,United Kingdom,Creative,https://guide.michelin.com/gb/en/city-of-edinburgh/edinburgh/restaurant/21212,1,37.13498916702738,81.23278880287239
403,The Cellar,56.222126,-2.6963209999999997,Anstruther,United Kingdom,Modern cuisine,https://guide.michelin.com/gb/en/fife/anstruther/restaurant/the-cellar,1,46.418736458784224,81.23278880287239
404,Forest Side,54.46396,-3.0157998,Grasmere,United Kingdom,Modern british,https://guide.michelin.com/gb/en/cumbria/grasmere/restaurant/forest-side,1,46.418736458784224,121.84918320430859
405,HRiSHi,54.35013000000001,-2.91172,Bowness-on-Windermere,United Kingdom,Modern cuisine,https://guide.michelin.com/gb/en/cumbria/bowness-on-windermere/restaurant/hrishi,1,81.23278880287239,104.4421570322645
406,Rogan & Co,54.20074,-2.95464,Cartmel,United Kingdom,Creative british,https://guide.michelin.com/gb/en/cumbria/cartmel/restaurant/rogan-co,1,33.65358393261857,52.22107851613225
407,House of Tides,54.967580000000005,-1.61127,Newcastle upon Tyne,United Kingdom,Modern cuisine,https://guide.michelin.com/gb/en/tyne-and-wear/newcastle-upon-tyne/restaurant/house-of-tides,1,63.82576263082831,110.24449908961253
408,Sosban & The Old Butchers,53.225925,-4.163006,Menai Bridge/Porthaethwy,United Kingdom,Modern cuisine,https://guide.michelin.com/gb/en/isle-of-anglesey/menai-bridge-porthaethwy/restaurant/sosban-the-old-butchers,1,58.02342057348028,109.08403067814294
409,Northcote,53.80933,-2.4476,Langho,United Kingdom,Modern british,https://guide.michelin.com/gb/en/lancashire/langho/restaurant/northcote,1,41.776862812905804,104.4421570322645
410,Yorke Arms,54.13435,-1.8183095,Pateley Bridge,United Kingdom,Modern cuisine,https://guide.michelin.com/gb/en/north-yorkshire/pateley-bridge/restaurant/yorke-arms,1,46.418736458784224,121.84918320430859
411,Fraiche,53.38183000000001,-3.04307,Birkenhead,United Kingdom,Creative,https://guide.michelin.com/gb/en/merseyside/birkenhead/restaurant/fraiche,1,55.70248375054107,110.24449908961253
412,White Swan,53.83916,-2.25097,Fence,United Kingdom,Modern british,https://guide.michelin.com/gb/en/lancashire/fence/restaurant/white-swan,1,40.616394401436196,69.62810468817634
413,Tyddyn Llan,52.92405,-3.44329,Llandrillo,United Kingdom,Classic cuisine,https://guide.michelin.com/gb/en/denbighshire/llandrillo/restaurant/tyddyn-llan,1,48.739673281723434,81.23278880287239
414,Ynyshir,52.54476,-3.9449099999999997,Machynlleth,United Kingdom,Creative,https://guide.michelin.com/gb/en/ceredigion/machynlleth/restaurant/ynyshir,1,208.884314064529,255.30305052331323
415,Black Swan,54.21205,-1.1879198999999998,Oldstead,United Kingdom,Modern british,https://guide.michelin.com/gb/en/north-yorkshire/oldstead/restaurant/black-swan,1,113.72590432402136,145.0585514337007
416,Simon Radley at Chester Grosvenor,53.19064,-2.8891299999999998,Chester,United Kingdom,Modern cuisine,https://guide.michelin.com/gb/en/cheshire-west-and-chester/chester/restaurant/simon-radley-at-chester-grosvenor,1,87.03513086022042,114.88637273549097
417,Star Inn at Harome,54.23101,-1.01023,Harome,United Kingdom,Modern british,https://guide.michelin.com/gb/en/north-yorkshire/harome/restaurant/star-inn-at-harome,1,29.01171028674014,70.78857309964594
418,The Man Behind The Curtain,53.798286,-1.5399370000000001,Leeds,United Kingdom,Creative,https://guide.michelin.com/gb/en/kent/leeds/restaurant/the-man-behind-the-curtain,1,63.82576263082831,116.04684114696056
419,Pipe and Glass,53.8955,-0.53301,South Dalton,United Kingdom,Modern british,https://guide.michelin.com/gb/en/east-riding-of-yorkshire/south-dalton/restaurant/pipe-and-glass,1,34.81405234408817,66.14669945376752
420,Fischer's at Baslow Hall,53.25055,-1.6269798,Baslow,United Kingdom,Modern cuisine,https://guide.michelin.com/gb/en/derbyshire/baslow/restaurant/fischer-s-at-baslow-hall,1,39.455925989966595,102.1212202093253
421,Winteringham Fields,53.687780000000004,-0.59013,Winteringham,United Kingdom,Modern cuisine,https://guide.michelin.com/gb/en/north-lincolnshire/winteringham/restaurant/winteringham-fields,1,73.10950992258516,103.28168862079491
422,Thomas Carr @ The Olive Room,51.209476,-4.118807,Ilfracombe,United Kingdom,Seafood,https://guide.michelin.com/gb/en/devon/ilfracombe/restaurant/thomas-carr-the-olive-room,1,63.82576263082831,87.03513086022042
423,Walnut Tree,51.84534,-2.95438,Llanddewi Skirrid,United Kingdom,Modern british,https://guide.michelin.com/gb/en/monmouthshire/llanddewi-skirrid/restaurant/walnut-tree,1,34.81405234408817,70.78857309964594
424,Paul Ainsworth at No.6,50.541534000000006,-4.9398518,Padstow,United Kingdom,Modern cuisine,https://guide.michelin.com/gb/en/cornwall/padstow/restaurant/paul-ainsworth-at-no-6,1,39.455925989966595,103.28168862079491
425,Simpsons,52.46925,-1.9238800999999999,Birmingham,United Kingdom,Modern cuisine,https://guide.michelin.com/gb/en/west-midlands/birmingham/restaurant/simpsons,1,52.22107851613225,81.23278880287239
426,Purnell's,52.48268,-1.9018,Birmingham,United Kingdom,Modern cuisine,https://guide.michelin.com/gb/en/west-midlands/birmingham/restaurant/purnell-s,1,52.22107851613225,110.24449908961253
427,Adam's,52.47964,-1.9002860000000001,Birmingham,United Kingdom,Modern cuisine,https://guide.michelin.com/gb/en/west-midlands/birmingham/restaurant/adam-s,1,46.418736458784224,110.24449908961253
428,Outlaw's Fish Kitchen,50.59206,-4.832,Port Isaac,United Kingdom,Seafood,https://guide.michelin.com/gb/en/cornwall/port-isaac/restaurant/outlaw-s-fish-kitchen,1,40.616394401436196,58.02342057348028
429,Carters of Moseley,52.44588,-1.8838400000000002,Birmingham,United Kingdom,Modern british,https://guide.michelin.com/gb/en/west-midlands/birmingham/restaurant/carters-of-moseley,1,58.02342057348028,104.4421570322645
430,Peel's,52.4259,-1.7053599999999998,Hampton in Arden,United Kingdom,Creative british,https://guide.michelin.com/gb/en/west-midlands/hampton-in-arden/restaurant/peel-s,1,87.03513086022042,110.24449908961253
431,John's House,52.73295,-1.145851,Mountsorrel,United Kingdom,Modern cuisine,https://guide.michelin.com/gb/en/leicestershire/mountsorrel/restaurant/john-s-house,1,34.81405234408817,91.67700450609884
432,The Whitebrook,51.759696999999996,-2.686909,Whitebrook,United Kingdom,Modern british,https://guide.michelin.com/gb/en/monmouthshire/whitebrook/restaurant/the-whitebrook,1,48.739673281723434,98.63981497491648
433,James Sommerin,51.434387,-3.167951,Penarth,United Kingdom,Modern cuisine,https://guide.michelin.com/gb/en/the-vale-of-glamorgan/penarth/restaurant/james-sommerin,1,44.097799635845014,110.24449908961253
434,Driftwood,50.1889,-4.97088,Portscatho,United Kingdom,Modern cuisine,https://guide.michelin.com/gb/en/cornwall/portscatho/restaurant/driftwood,1,81.23278880287239,116.04684114696056
435,The Cross at Kenilworth,52.350315,-1.5801147,Kenilworth,United Kingdom,Classic cuisine,https://guide.michelin.com/gb/en/warwickshire/kenilworth/restaurant/the-cross-at-kenilworth,1,33.65358393261857,87.03513086022042
436,Masons Arms,50.995470000000005,-3.6716300000000004,Knowstone,United Kingdom,Classic french,https://guide.michelin.com/gb/en/devon/knowstone/restaurant/masons-arms,1,32.49311552114896,63.82576263082831
437,Salt,52.18963,-1.7092043000000001,Stratford-upon-Avon,United Kingdom,Modern british,https://guide.michelin.com/gb/en/warwickshire/stratford-upon-avon/restaurant/salt522869,1,32.49311552114896,87.03513086022042
438,Le Champignon Sauvage,51.891459999999995,-2.07912,Cheltenham,United Kingdom,Modern cuisine,https://guide.michelin.com/gb/en/gloucestershire/cheltenham/restaurant/le-champignon-sauvage,1,40.616394401436196,98.63981497491648
439,Gidleigh Park,50.67658,-3.87354,Chagford,United Kingdom,Modern cuisine,https://guide.michelin.com/gb/en/devon/chagford/restaurant/gidleigh-park,1,75.43044674552436,168.2679196630928
440,Hambleton Hall,52.65736999999999,-0.6681199999999999,Upper Hambleton,United Kingdom,Classic cuisine,https://guide.michelin.com/gb/en/rutland/upper-hambleton/restaurant/hambleton-hall,1,46.418736458784224,113.72590432402136
441,wilks,51.46737,-2.6069899,Bristol,United Kingdom,Modern british,https://guide.michelin.com/gb/en/south-gloucestershire/bristol/restaurant/wilks,1,39.455925989966595,102.1212202093253
442,Bulrush,51.46278,-2.5977580000000002,Bristol,United Kingdom,Modern british,https://guide.michelin.com/gb/en/south-gloucestershire/bristol/restaurant/bulrush,1,39.455925989966595,69.62810468817634
443,Casamia,51.447254,-2.5940727999999997,Bristol,United Kingdom,Creative,https://guide.michelin.com/gb/en/south-gloucestershire/bristol/restaurant/casamia,1,55.70248375054107,136.93527255341345
444,Paco Tapas,51.44647,-2.5935799999999998,Bristol,United Kingdom,Spanish,https://guide.michelin.com/gb/en/south-gloucestershire/bristol/restaurant/paco-tapas,1,23.209368229392112,58.02342057348028
445,Pony & Trap,51.34938,-2.5925993999999997,Chew Magna,United Kingdom,Modern british,https://guide.michelin.com/gb/en/bath-and-north-east-somerset/chew-magna/restaurant/pony-trap,1,31.332647109679353,75.43044674552436
446,The Dining Room,51.58376,-2.14954,Malmesbury,United Kingdom,Asian influences,https://guide.michelin.com/gb/en/wiltshire/malmesbury/restaurant/the-dining-room193454,1,110.24449908961253,145.0585514337007
447,Bybrook,51.49382,-2.23212,Castle Combe,United Kingdom,Modern british,https://guide.michelin.com/gb/en/wiltshire/castle-combe/restaurant/bybrook,1,87.03513086022042,110.24449908961253
448,Restaurant Hywel Jones by Lucknam Park,51.455020000000005,-2.25941,Colerne,United Kingdom,Modern british,https://guide.michelin.com/gb/en/wiltshire/colerne/restaurant/restaurant-hywel-jones-by-lucknam-park,1,100.96075179785569,133.45386731900464
449,Olive Tree,51.38707,-2.3627,Bath,United Kingdom,Modern cuisine,https://guide.michelin.com/gb/en/bath-and-north-east-somerset/bath/restaurant/olive-tree,1,38.295457578496986,98.63981497491648
450,Lympstone Manor,50.64069,-3.4186062999999995,Lympstone,United Kingdom,Modern cuisine,https://guide.michelin.com/gb/en/devon/lympstone/restaurant/lympstone-manor,1,55.70248375054107,179.87260377778887
451,The Neptune,52.9511,0.50927,Hunstanton,United Kingdom,Modern cuisine,https://guide.michelin.com/gb/en/norfolk/hunstanton/restaurant/the-neptune,1,71.94904151111555,92.83747291756845
452,Elephant,50.458529999999996,-3.5243800000000003,Torquay,United Kingdom,Modern british,https://guide.michelin.com/gb/en/torbay/torquay/restaurant/elephant,1,29.01171028674014,92.83747291756845
453,Oxford Kitchen,51.776733,-1.264794,Oxford,United Kingdom,Modern british,https://guide.michelin.com/gb/en/oxfordshire/oxford/restaurant/oxford-kitchen,1,33.65358393261857,75.43044674552436
454,Nut Tree,51.83618,-1.1499,Murcott,United Kingdom,Traditional british,https://guide.michelin.com/gb/en/oxfordshire/murcott/restaurant/nut-tree,1,42.937331224375406,87.03513086022042
455,Morston Hall,52.954730000000005,0.98729,Morston,United Kingdom,Modern british,https://guide.michelin.com/gb/en/norfolk/morston/restaurant/morston-hall,1,110.24449908961253,110.24449908961253
456,Red Lion Freehouse,51.2736,-1.8007996,East Chisenbury,United Kingdom,Classic cuisine,https://guide.michelin.com/gb/en/wiltshire/east-chisenbury/restaurant/red-lion-freehouse,1,27.851241875270535,69.62810468817634
457,Blackbird,51.420887,-1.3493548999999998,Newbury,United Kingdom,Classic cuisine,https://guide.michelin.com/gb/en/west-berkshire/newbury/restaurant/blackbird552018,1,33.65358393261857,64.98623104229792
458,Woodspeen,51.415802,-1.353532,Newbury,United Kingdom,Modern cuisine,https://guide.michelin.com/gb/en/west-berkshire/newbury/restaurant/woodspeen,1,32.49311552114896,78.91185197993319
459,The Coach,51.571712,-0.7772678000000001,Marlow,United Kingdom,Modern british,https://guide.michelin.com/gb/en/buckinghamshire/marlow/restaurant/the-coach,1,25.530305052331325,39.455925989966595
460,Crown,51.524807,-0.7915291,Burchett's Green,United Kingdom,Regional cuisine,https://guide.michelin.com/gb/en/windsor-and-maidenhead/burchett-s-green/restaurant/crown442549,1,27.851241875270535,48.739673281723434
461,L'Ortolan,51.40833,-0.9542898000000001,Shinfield,United Kingdom,French,https://guide.michelin.com/gb/en/wokingham/shinfield/restaurant/l-ortolan,1,48.739673281723434,121.84918320430859
462,Hinds Head,51.51265,-0.6964100000000001,Bray,United Kingdom,Traditional british,https://guide.michelin.com/gb/en/buckinghamshire/bray/restaurant/hinds-head,1,34.81405234408817,110.24449908961253
463,Black Rat,51.057959999999994,-1.3069496999999999,Winchester,United Kingdom,Modern cuisine,https://guide.michelin.com/gb/en/hampshire/winchester/restaurant/black-rat,1,39.455925989966595,69.62810468817634
464,Matt Worswick at The Latymer,51.35764,-0.7086128,Bagshot,United Kingdom,Modern cuisine,https://guide.michelin.com/gb/en/surrey/bagshot/restaurant/matt-worswick-at-the-latymer,1,56.86295216201068,121.84918320430859
465,Coworth Park,51.40463,-0.616715,Ascot,United Kingdom,Modern cuisine,https://guide.michelin.com/gb/en/windsor-and-maidenhead/ascot/restaurant/coworth-park,1,40.616394401436196,127.65152526165662
466,Tudor Room,51.417590000000004,-0.545847,Egham,United Kingdom,Modern cuisine,https://guide.michelin.com/gb/en/surrey/egham/restaurant/tudor-room,1,52.22107851613225,110.24449908961253
467,The Glasshouse,51.4771,-0.28574,Kew,United Kingdom,Modern cuisine,https://guide.michelin.com/gb/en/greater-london/kew/restaurant/the-glasshouse,1,46.418736458784224,67.30716786523713
468,La Trompette,51.49222,-0.25619000000000003,Chiswick,United Kingdom,Modern british,https://guide.michelin.com/gb/en/greater-london/chiswick/restaurant/la-trompette,1,46.418736458784224,87.03513086022042
469,Tim Allen's Flitch of Bacon,51.867470000000004,0.404134,Little Dunmow,United Kingdom,Modern british,https://guide.michelin.com/gb/en/essex/little-dunmow/restaurant/tim-allen-s-flitch-of-bacon,1,37.13498916702738,81.23278880287239
470,River Café,51.48395,-0.22423,Hammersmith,United Kingdom,Italian,https://guide.michelin.com/gb/en/greater-london/hammersmith/restaurant/river-cafe,1,78.91185197993319,110.24449908961253
471,Kitchen W8,51.499179999999996,-0.19692,Kensington,United Kingdom,Modern cuisine,https://guide.michelin.com/gb/en/greater-london/kensington/restaurant/kitchen-w8,1,29.01171028674014,87.03513086022042
472,Trishna,51.51834,-0.153031,Marylebone,United Kingdom,Indian,https://guide.michelin.com/gb/en/greater-london/marylebone/restaurant/trishna,1,29.01171028674014,81.23278880287239
473,Roganic,51.518314000000004,-0.1520875,Marylebone,United Kingdom,Creative british,https://guide.michelin.com/gb/en/greater-london/marylebone/restaurant/roganic,1,40.616394401436196,98.63981497491648
474,Locanda Locatelli,51.51514,-0.15675,Marylebone,United Kingdom,Italian,https://guide.michelin.com/gb/en/greater-london/marylebone/restaurant/locanda-locatelli,1,58.02342057348028,116.04684114696056
475,Texture,51.51488,-0.15664,Marylebone,United Kingdom,Creative,https://guide.michelin.com/gb/en/greater-london/marylebone/restaurant/texture,1,33.65358393261857,134.61433573047427
476,Portland,51.519726,-0.142555,Regent's Park,United Kingdom,Modern cuisine,https://guide.michelin.com/gb/en/greater-london/regent-s-park/restaurant/portland,1,34.81405234408817,80.07232039140278
477,Harwood Arms,51.48291,-0.19651,Fulham,United Kingdom,Modern british,https://guide.michelin.com/gb/en/greater-london/fulham/restaurant/harwood-arms,1,38.295457578496986,58.02342057348028
478,Pied à Terre,51.519,-0.13510999999999998,Bloomsbury,United Kingdom,Creative,https://guide.michelin.com/gb/en/greater-london/bloomsbury/restaurant/pied-a-terre,1,49.90014169319304,168.2679196630928
479,The Ninth,51.51875,-0.1350068,Bloomsbury,United Kingdom,Mediterranean cuisine,https://guide.michelin.com/gb/en/greater-london/bloomsbury/restaurant/the-ninth,1,32.49311552114896,68.46763627670673
480,Kai,51.50871,-0.15162,Mayfair,United Kingdom,Chinese,https://guide.michelin.com/gb/en/greater-london/mayfair/restaurant/kai123638,1,44.097799635845014,335.37537091471603
481,Pollen Street Social,51.5133,-0.14234000000000002,Mayfair,United Kingdom,Creative,https://guide.michelin.com/gb/en/greater-london/mayfair/restaurant/pollen-street-social,1,42.937331224375406,98.63981497491648
482,Hakkasan Mayfair,51.51037,-0.14475,Mayfair,United Kingdom,Chinese,https://guide.michelin.com/gb/en/greater-london/mayfair/restaurant/hakkasan-mayfair,1,37.13498916702738,139.25620937635267
483,The Square,51.510690000000004,-0.14401,Mayfair,United Kingdom,Creative french,https://guide.michelin.com/gb/en/greater-london/mayfair/restaurant/the-square69391,1,42.937331224375406,127.65152526165662
484,Alyn Williams at The Westbury,51.511179999999996,-0.14303,Mayfair,United Kingdom,Modern cuisine,https://guide.michelin.com/gb/en/greater-london/mayfair/restaurant/alyn-williams-at-the-westbury,1,40.616394401436196,104.4421570322645
485,Benares,51.50973,-0.14494,Mayfair,United Kingdom,Indian,https://guide.michelin.com/gb/en/greater-london/mayfair/restaurant/benares,1,33.65358393261857,113.72590432402136
486,Hakkasan Hanway Place,51.5171,-0.13144,Bloomsbury,United Kingdom,Chinese,https://guide.michelin.com/gb/en/greater-london/bloomsbury/restaurant/hakkasan-hanway-place,1,40.616394401436196,156.66323554839676
487,Social Eating House,51.51383,-0.13673,Soho,United Kingdom,Modern cuisine,https://guide.michelin.com/gb/en/greater-london/soho/restaurant/social-eating-house,1,32.49311552114896,78.91185197993319
488,Galvin at Windows,51.505390000000006,-0.15039,Mayfair,United Kingdom,Modern cuisine,https://guide.michelin.com/gb/en/greater-london/mayfair/restaurant/galvin-at-windows,1,42.937331224375406,138.09574096488308
489,Murano,51.50707,-0.14722000000000002,Mayfair,United Kingdom,Italian,https://guide.michelin.com/gb/en/greater-london/mayfair/restaurant/murano,1,37.13498916702738,121.84918320430859
490,Marcus,51.501709999999996,-0.15614,Belgravia,United Kingdom,Modern cuisine,https://guide.michelin.com/gb/en/greater-london/belgravia/restaurant/marcus,1,52.22107851613225,156.66323554839676
491,Sabor,51.511368,-0.1396773,Mayfair,United Kingdom,Spanish,https://guide.michelin.com/gb/en/greater-london/mayfair/restaurant/sabor,1,40.616394401436196,69.62810468817634
492,Clock House,51.30044,-0.49287,Ripley,United Kingdom,Modern cuisine,https://guide.michelin.com/gb/en/surrey/ripley/restaurant/clock-house,1,46.418736458784224,104.4421570322645
493,Yauatcha Soho,51.51367,-0.1352,Soho,United Kingdom,Chinese,https://guide.michelin.com/gb/en/greater-london/soho/restaurant/yauatcha-soho,1,33.65358393261857,83.55372562581161
494,Céleste,51.502421999999996,-0.15226170000000003,Belgravia,United Kingdom,Creative french,https://guide.michelin.com/gb/en/greater-london/belgravia/restaurant/celeste,1,45.25826804731462,116.04684114696056
495,Gymkhana,51.50854,-0.14154,Mayfair,United Kingdom,Indian,https://guide.michelin.com/gb/en/greater-london/mayfair/restaurant/gymkhana,1,32.49311552114896,104.4421570322645
496,Amaya,51.49912,-0.15730999999999998,Belgravia,United Kingdom,Indian,https://guide.michelin.com/gb/en/greater-london/belgravia/restaurant/amaya,1,46.418736458784224,91.67700450609884
497,Pétrus,51.49951,-0.15662,Belgravia,United Kingdom,French,https://guide.michelin.com/gb/en/greater-london/belgravia/restaurant/petrus284688,1,52.22107851613225,145.0585514337007
498,Veeraswamy,51.51008,-0.13809000000000002,Mayfair,United Kingdom,Indian,https://guide.michelin.com/gb/en/greater-london/mayfair/restaurant/veeraswamy,1,42.937331224375406,87.03513086022042
499,Barrafina,51.51375,-0.1318,Soho,United Kingdom,Spanish,https://guide.michelin.com/gb/en/greater-london/soho/restaurant/barrafina,1,23.209368229392112,46.418736458784224
500,Hide,51.506077000000005,-0.144289,Mayfair,United Kingdom,Modern british,https://guide.michelin.com/gb/en/greater-london/mayfair/restaurant/hide,1,44.097799635845014,133.45386731900464
501,Ritz Restaurant,51.50728,-0.14140999999999998,Westminster,United Kingdom,Modern british,https://guide.michelin.com/gb/en/greater-london/westminster/restaurant/ritz-restaurant,1,68.46763627670673,162.46557760574478
502,Elystan Street,51.491240000000005,-0.16724,Chelsea,United Kingdom,Modern british,https://guide.michelin.com/gb/en/greater-london/chelsea/restaurant/elystan-street,1,34.81405234408817,97.47934656344687
503,Seven Park Place,51.50623,-0.13998,Saint James's,United Kingdom,Modern cuisine,https://guide.michelin.com/gb/en/greater-london/saint-james-s/restaurant/seven-park-place,1,32.49311552114896,110.24449908961253
504,Ikoyi,51.509212,-0.1334389,Saint James's,United Kingdom,Creative,https://guide.michelin.com/gb/en/greater-london/saint-james-s/restaurant/ikoyi,1,40.616394401436196,116.04684114696056
505,Aquavit,51.508713,-0.1334072,Saint James's,United Kingdom,Scandinavian,https://guide.michelin.com/gb/en/greater-london/saint-james-s/restaurant/aquavit501082,1,54.37806896226706,176.72872412736794
506,Five Fields,51.49168,-0.16124000000000002,Chelsea,United Kingdom,Modern cuisine,https://guide.michelin.com/gb/en/greater-london/chelsea/restaurant/five-fields,1,75.43044674552436,110.24449908961253
507,Dining Room at The Goring,51.49763,-0.14556,Victoria,United Kingdom,Traditional british,https://guide.michelin.com/gb/en/greater-london/victoria/restaurant/dining-room-at-the-goring,1,60.3443573964195,74.26997833405476
508,St John,51.52064,-0.10132999999999999,Clerkenwell,United Kingdom,Traditional british,https://guide.michelin.com/gb/en/greater-london/clerkenwell/restaurant/st-john,1,41.776862812905804,58.02342057348028
509,Quilon,51.49863,-0.13726,Victoria,United Kingdom,Indian,https://guide.michelin.com/gb/en/greater-london/victoria/restaurant/quilon,1,35.974520755557776,98.63981497491648
510,Club Gascon,51.518570000000004,-0.10031,London,United Kingdom,French,https://guide.michelin.com/gb/en/greater-london/london/restaurant/club-gascon,1,40.616394401436196,127.65152526165662
511,A. Wong,51.493179999999995,-0.14128,Victoria,United Kingdom,Chinese,https://guide.michelin.com/gb/en/greater-london/victoria/restaurant/a-wong,1,27.851241875270535,110.24449908961253
512,The Clove Club,51.52711,-0.07927000000000001,Shoreditch,United Kingdom,Modern cuisine,https://guide.michelin.com/gb/en/greater-london/shoreditch/restaurant/the-clove-club,1,75.43044674552436,168.2679196630928
513,Leroy,51.524086,-0.0815337,Shoreditch,United Kingdom,Modern british,https://guide.michelin.com/gb/en/greater-london/shoreditch/restaurant/leroy,1,25.530305052331325,53.38154692760186
514,Angler,51.51894,-0.08625,Finsbury,United Kingdom,Seafood,https://guide.michelin.com/gb/en/greater-london/finsbury/restaurant/angler392235,1,41.776862812905804,87.03513086022042
515,Brat,51.52427,-0.0767681,Shoreditch,United Kingdom,Traditional british,https://guide.michelin.com/gb/en/greater-london/shoreditch/restaurant/brat,1,29.01171028674014,75.43044674552436
516,Lyle's,51.52378,-0.07704,Shoreditch,United Kingdom,Modern british,https://guide.michelin.com/gb/en/greater-london/shoreditch/restaurant/lyle-s,1,40.616394401436196,68.46763627670673
517,Galvin La Chapelle,51.52032,-0.0781,Spitalfields,United Kingdom,French,https://guide.michelin.com/gb/en/greater-london/spitalfields/restaurant/galvin-la-chapelle,1,44.097799635845014,89.35606768315964
518,City Social,51.515209999999996,-0.08431,City of London,United Kingdom,Modern cuisine,https://guide.michelin.com/gb/en/greater-london/city-of-london/restaurant/city-social,1,52.22107851613225,105.60262544373411
519,La Dame de Pic,51.510372,-0.07889810000000001,City of London,United Kingdom,Modern french,https://guide.michelin.com/gb/en/greater-london/city-of-london/restaurant/la-dame-de-pic,1,48.739673281723434,132.29339890753505
520,Story,51.50268,-0.07774,Bermondsey,United Kingdom,Modern cuisine,https://guide.michelin.com/gb/en/greater-london/bermondsey/restaurant/story,1,116.04684114696056,168.2679196630928
521,Trinity,51.463359999999994,-0.14148,Clapham Common,United Kingdom,Modern cuisine,https://guide.michelin.com/gb/en/greater-london/clapham-common/restaurant/trinity,1,46.418736458784224,81.23278880287239
522,Chez Bruce,51.44607,-0.16552999999999998,Wandsworth,United Kingdom,French,https://guide.michelin.com/gb/en/greater-london/wandsworth/restaurant/chez-bruce,1,46.418736458784224,66.14669945376752
523,Sorrel,51.228825,-0.3346741,Dorking,United Kingdom,Modern british,https://guide.michelin.com/gb/en/surrey/dorking/restaurant/sorrel545459,1,52.22107851613225,110.24449908961253
